stop_id,stop_code,stop_name,stop_lat,stop_lon,zone_id,alias,stop_area,stop_desc,lest_x,lest_y,zone_name,authority
154135,4420095-2,Peetri rist (Siivertsi),59.406376,28.164083,154135,,Narva linn,,6592723.16,736357.63,,Narva LV
24417,7800232-1,Keeri,58.32272839,26.50336311,24417,,Nõo vald,"Nõgiaru suunas",6467416.50,646655.50,,Tartu MV
155981,4401153-1,Kassikaku,59.00924571,27.4504645,155981,,Alajõe vald,"Vasknarva suunas",6546243.50,698166.00,,Ida-Viru MV
26622,5900363-1,Leikude,59.33881868,26.06378195,26622,,Kadrina vald,,6579665.00,617430.68,Viru2D,Lääne-Viru MV
32158,5900233-1,Kihlevere,59.38073,26.117952,32158,,Kadrina vald,,6584427.75,620364.59,Viru2D,Lääne-Viru MV
24420,7801039-1,Valli,58.30022338,26.4713277,24420,,Nõo vald,"Meeri suunas",6464842.05,644871.94,,Tartu MV
9566,33704-1,Kotka,59.54100552,25.73676559,9566,,Kuusalu vald,,6601655.00,598244.62,Harju4,Harjumaa ÜTK
785,00101-1,Kakumäe,59.45913844,24.5731759,785,,Haabersti,,6591401.27,532504.33,Harju1,Tallinna TA
1181,09704-1,Standard,59.44800268,24.7113414,1181,,Põhja-Tallinn,,6590235.78,540352.48,Harju1,Tallinna TA
26737,5900380-1,Liivari,59.39032607,26.1211537,26737,,Kadrina vald,,6585502.00,620512.68,Viru2D,Lääne-Viru MV
790,00106-1,Teeotsa,59.45375589,24.58079798,790,,Haabersti,,6590805.37,532941.76,Harju1,Tallinna TA
792,00108-1,Sooranna tee,59.45198095,24.58396721,792,,Haabersti,,6590609.20,533123.23,Harju1,Tallinna TA
134330,6500907-1,Roosimäe,58.05830911,27.06492176,134330,,Põlva vald,"Põlva bussijaama suunas",6439362.30,680877.90,,Põlva MV
794,00124-1,Landi,59.44870712,24.59001154,794,,Haabersti,,6590247.49,533469.27,Harju1,Tallinna TA
795,00110-1,Landi,59.44885072,24.58997753,795,,Haabersti,,6590263.47,533467.20,Harju1,Tallinna TA
796,00111-1,Kakumäe tee,59.44205982,24.59483522,796,,Haabersti,,6589509.39,533749.46,Harju1,Tallinna TA
797,00112-1,Kakumäe tee,59.44291703,24.59407091,797,,Haabersti,,6589604.50,533705.25,Harju1,Tallinna TA
22575,8600342-1,Loosi,57.80189398,27.2221563,22575,,Võru vald,"Loosi kool suunas",6411271.06,691521.56,,Võru MV
4893,21940-1,Pärtli tee,59.11701843,24.47791834,4893,,Saue vald,,6553248.00,527374.00,Harju4,Harjumaa ÜTK
802,00117-1,Tiskre oja,59.43164414,24.60061903,802,,Harku vald,,6588352.00,534088.00,Harju1,Harjumaa ÜTK
803,00118-1,Jõeküla,59.43581229,24.58195984,803,,Harku vald,,6588807.00,533025.00,Harju1,Harjumaa ÜTK
804,00119-1,Jõeküla,59.43609404,24.58117163,804,,Harku vald,,6588838.00,532980.00,Harju1,Harjumaa ÜTK
22807,7800516-1,Meeri,58.28944659,26.47545712,22807,,Nõo vald,"Nõo suunas",6463651.50,645158.18,,Tartu MV
806,00202-1,Paljandi,59.44008608,24.62322672,806,,Haabersti,,6589304.14,535362.32,Harju1,Tallinna TA
807,00203-1,Õismäe raba,59.4372244,24.62729708,807,,Haabersti,,6588987.50,535596.25,Harju1,Tallinna TA
809,00302-1,Pikaliiva,59.42755592,24.62930866,809,,Haabersti,,6587911.50,535720.50,Harju1,Tallinna TA
147653,6720028-1,Valgekodu,58.4025497,24.38533198,147653,,Pärnu linn,"Audru suunas",6473634.60,522528.10,,Pärnu LV
812,00305-1,Tanuma,59.42787239,24.63317571,812,,Haabersti,,6587948.82,535939.66,Harju1,Tallinna TA
816,00309-1,Zoo,59.42642984,24.65804876,816,,Haabersti,,6587801.71,537353.01,Harju1,Tallinna TA
1624,21101-1,Balti jaam,59.44105122,24.738427,1624,Tallinn; Balti Jaam,Põhja-Tallinn,,6589478.00,541897.43,Harju1,Tallinna TA
819,00601-1,Sõba,59.42645,24.63231,819,,Haabersti,,6587789.90,535892.01,Harju1,Tallinna TA
823,00801-1,Karikakra,59.41683645,24.65256163,823,,Haabersti,,6586729.97,537051.95,Harju1,Tallinna TA
825,00901-1,Sinilille,59.41944736,24.64543854,825,,Haabersti,,6587016.91,536644.72,Harju1,Tallinna TA
826,00911-1,Sinilille,59.41944096,24.64590079,826,,Haabersti,,6587016.45,536670.97,Harju1,Tallinna TA
31192,7800064-1,Aruvälja,58.45733492,26.40247638,31192,,Tartu vald,"Tartu suunas",6482183.00,640210.93,,Tartu MV
828,00903-1,Sinilille,59.42042573,24.64477886,828,,Haabersti,,6587125.54,536606.22,Harju1,Tallinna TA
830,01001-1,Meelespea,59.41562616,24.63971771,830,,Haabersti,,6586588.12,536323.99,Harju1,Tallinna TA
831,01002-1,Meelespea,59.41647756,24.63963519,831,,Haabersti,,6586682.92,536318.40,Harju1,Tallinna TA
833,01102-1,Rukkilille,59.41378273,24.64026614,833,,Haabersti,,6586383.06,536357.09,Harju1,Tallinna TA
834,01103-1,Rukkilille,59.41339165,24.64027595,834,,Haabersti,,6586339.50,536358.06,Harju1,Tallinna TA
136175,6500957-1,Laeva,58.02068426,26.91039916,136175,,Kanepi vald,"Maanteemuuseumi suunas",6434769.50,671946.31,,Põlva MV
836,01302-1,Nurmenuku,59.41401943,24.65406892,836,,Haabersti,,6586416.99,537140.59,Harju1,Tallinna TA
837,01401-1,Kullerkupu,59.41125207,24.64768053,837,,Haabersti,,6586105.19,536780.82,Harju1,Tallinna TA
840,01602-1,Järvekalda,59.40760397,24.62296364,840,,Haabersti,,6585685.50,535381.00,Harju1,Tallinna TA
93449,11312-1,Kitseküla,59.42038978,24.73866103,93449,Kitseküla,Kesklinn,,6587176.50,541936.06,Harju1,Tallinna TA
126805,03605-1,Mäepealse,59.3946193,24.64593887,126805,,Mustamäe,,6584251.36,536699.76,Harju1,Tallinna TA
153793,8600951-1,Jõesilla,57.77285,26.61457,153793,,Antsla vald,"Rimmi suunas",6406467.27,655553.75,,Võru MV
154411,5701107-1,Paju,59.07884255,23.99266837,154411,,Lääne-Nigula vald,,6548898.00,499579.59,,Lääne MV
845,01607-1,Järveotsa kool,59.40715344,24.63950251,845,,Haabersti,,6585644.15,536320.77,Harju1,Tallinna TA
846,01608-1,Järveotsa kool,59.40696131,24.64035693,846,,Haabersti,,6585623.21,536369.50,Harju1,Tallinna TA
848,01701-1,Kullerkupu,59.41102131,24.64774835,848,,Haabersti,,6586079.52,536784.92,Harju1,Tallinna TA
22190,4400067-1,Atsalama,59.24133721,27.3583402,22190,,Alutaguse vald,"Tartu suunas",6571796.03,691585.77,,Ida-Viru MV
851,01903-1,Harku-Kadaka,59.40492852,24.63887989,851,,Haabersti,,6585395.96,536287.77,Harju1,Tallinna TA
853,02101-1,Kadaka Selver,59.41117644,24.66613972,853,,Mustamäe,,6586107.03,537829.14,Harju1,Tallinna TA
854,02102-1,Autobussikoondis,59.41167613,24.66344702,854,,Mustamäe,,6586161.18,537675.68,Harju1,Tallinna TA
856,02104-1,Kadaka Selver,59.4126024,24.66861642,856,,Mustamäe,,6586267.28,537968.20,Harju1,Tallinna TA
857,02105-1,Laki,59.41649659,24.67840728,857,,Mustamäe,,6586706.67,538519.78,Harju1,Tallinna TA
858,02106-1,Aiandi,59.41381682,24.68992799,858,,Mustamäe,,6586414.82,539176.97,Harju1,Tallinna TA
859,02107-1,Sääse,59.41066344,24.68699752,859,,Mustamäe,,6586061.83,539014.17,Harju1,Tallinna TA
860,02108-1,Lakiotsa,59.40992621,24.67363956,860,,Mustamäe,,6585972.01,538256.43,Harju1,Tallinna TA
1099,07706-1,Nõmme tee,59.41141029,24.71460928,1099,,Kristiine,,6586161.41,540581.28,Harju1,Tallinna TA
864,02201-1,Sääse,59.41132075,24.6882119,864,,Mustamäe,,6586135.76,539082.38,Harju1,Tallinna TA
865,02301-1,Siili,59.4083616,24.70411381,865,,Mustamäe,,6585815.49,539988.85,Harju1,Tallinna TA
867,02402-1,Lehola,59.40307938,24.68742581,867,,Mustamäe,,6585217.23,539047.15,Harju1,Tallinna TA
868,02403-1,Vambola,59.39980357,24.68884663,868,,Mustamäe,,6584853.14,539131.60,Harju1,Tallinna TA
871,02502-1,Lehola,59.40323916,24.68759963,871,,Mustamäe,,6585235.13,539056.84,Harju1,Tallinna TA
872,02503-1,A. H. Tammsaare tee,59.40706966,24.68365523,872,,Mustamäe,,6585659.55,538828.45,Harju1,Tallinna TA
873,02601-1,Lepistiku,59.40311841,24.69886148,873,,Mustamäe,,6585228.29,539696.65,Harju1,Tallinna TA
874,02602-1,Retke tee,59.40243015,24.70655926,874,,Mustamäe,,6585156.20,540134.69,Harju1,Tallinna TA
10402,21221-1,A. Laikmaa,59.43508851,24.75776086,10402,Tallinn,Kesklinn,,6588826.00,543001.87,Harju1,Tallinna TA
877,02605-1,Retke tee,59.40360627,24.70659782,877,,Mustamäe,,6585287.24,540135.50,Harju1,Tallinna TA
878,02701-1,Lastehaigla,59.39944838,24.70602624,878,,Mustamäe,,6584823.72,540107.91,Harju1,Tallinna TA
879,02702-1,Lastehaigla,59.3990286,24.7057125,879,,Mustamäe,,6584776.77,540090.58,Harju1,Tallinna TA
883,02803-1,Üliõpilaste tee,59.39246875,24.67281005,883,,Mustamäe,,6584026.81,538228.83,Harju1,Tallinna TA
884,02804-1,Üliõpilaste tee,59.39268296,24.67326166,884,,Mustamäe,,6584050.93,538254.25,Harju1,Tallinna TA
22576,8600343-1,Loosi,57.80176031,27.22243672,22576,,Võru vald,"Loosi mõis suunas",6411256.99,691538.93,,Võru MV
149687,8200845-1,Konnaoja,57.77756006,26.02728198,149687,,Valga vald,,6405782.60,620609.40,,Valga MV
888,02808-1,Tehnikaülikool,59.39487984,24.67319524,888,,Mustamäe,,6584295.62,538248.02,Harju1,Tallinna TA
889,02901-1,Keskuse,59.39919018,24.6802048,889,,Mustamäe,,6584779.80,538641.39,Harju1,Tallinna TA
891,02903-1,Ehitajate tee,59.39796504,24.67663379,891,,Mustamäe,,6584641.27,538439.91,Harju1,Tallinna TA
25236,6700493-1,Raekoja,58.40211889,24.64632729,25236,,Tori vald,"Pärnu suunas",6473703.96,537787.05,PärnuMVLL,Pärnu MV
148345,4401056-1,Kiviõli jaam,59.35288299,26.96805353,148345,,Lüganuse vald,"Lepa teel Keskuse suunas",6583160.00,668786.62,ViruVälis,Ida-Viru MV
20178,7800406-1,Laeva metskonna,58.46622369,26.37582488,20178,,Tartu vald,"Tallinna suunas",6483117.00,638621.12,,Tartu MV
899,03003-1,Vambola,59.39971296,24.69020629,899,,Mustamäe,,6584843.84,539208.94,Harju1,Tallinna TA
900,03004-1,Tervise,59.39707686,24.69842912,900,,Mustamäe,,6584555.02,539679.10,Harju1,Tallinna TA
902,03102-1,Kadaka,59.40533266,24.65791271,902,,Mustamäe,,6585451.43,537368.34,Harju1,Tallinna TA
904,03104-1,Autobussikoondis,59.41048777,24.6656549,904,,Mustamäe,,6586030.04,537802.37,Harju1,Tallinna TA
4706,21513-1,Künka,59.31763629,24.45112274,4706,,Harku vald,,6575585.00,525688.93,Harju3,Harjumaa ÜTK
907,03107-1,Akadeemia tee,59.40176502,24.66059713,907,,Mustamäe,,6585055.50,537524.72,Harju1,Tallinna TA
908,03201-1,A. H. Tammsaare tee,59.40682374,24.68309268,908,,Mustamäe,,6585631.83,538796.78,Harju1,Tallinna TA
909,03202-1,Szolnok,59.40484207,24.67529408,909,,Mustamäe,,6585406.59,538356.09,Harju1,Tallinna TA
910,03203-1,Lakiotsa,59.40957258,24.67487226,910,,Mustamäe,,6585933.32,538326.83,Harju1,Tallinna TA
21952,7800782-1,Rootsi,58.47206778,26.36736881,21952,,Tartu vald,"Laeva suunas",6483750.06,638104.98,,Tartu MV
20107,8600349-1,Luha,57.83609452,27.00639143,20107,,Võru linn,"Kalevi suunas",6414481.01,678534.95,,Võru MV
914,03302-1,Männi,59.40035072,24.67121999,914,,Mustamäe,,6584903.94,538129.70,Harju1,Tallinna TA
31731,7801008-1,Uhti keskus,58.28565497,26.71352763,31731,Uhti,Kambja vald,,6463769.50,659128.18,,Tartu MV
917,03401-1,Kaja,59.40334309,24.66463591,917,,Mustamäe,,6585233.56,537752.39,Harju1,Tallinna TA
918,03402-1,E. Vilde tee,59.4031177,24.66937782,918,,Mustamäe,,6585211.13,538021.98,Harju1,Tallinna TA
919,03403-1,Männi,59.40093395,24.67040913,919,,Mustamäe,,6584968.45,538082.99,Harju1,Tallinna TA
34125,06412-1,Liiva,59.38748229,24.72299034,34125,,Nõmme,,6583501.00,541085.93,Harju1,Tallinna TA
921,03405-1,Akadeemia tee,59.40130242,24.65997767,921,,Mustamäe,,6585003.62,537490.04,Harju1,Tallinna TA
25452,5100224-1,Külakõrtsi,58.7432025,25.54865396,25452,,Türi vald,,6512547.00,589657.25,tartu1,Järvamaa ÜTK
923,03502-1,Mustamäe,59.40004163,24.65947522,923,Tallinn,Mustamäe,,6584862.89,537462.88,Harju1,Tallinna TA
925,03503-2,Mustamäe,59.40116636,24.65767712,925,,Mustamäe,,6584987.18,537359.51,Harju1,Tallinna TA
926,03504-1,Raja,59.3975939,24.66319325,926,,Mustamäe,,6584592.30,537676.78,Harju1,Tallinna TA
927,03505-1,Kadaka,59.40334613,24.65627044,927,,Mustamäe,,6585229.22,537277.23,Harju1,Tallinna TA
928,03601-1,Kassi,59.40103096,24.64833392,928,,Mustamäe,,6584966.93,536828.93,Harju1,Tallinna TA
929,03602-1,Kassi,59.39968516,24.64590691,929,,Mustamäe,,6584815.68,536692.51,Harju1,Tallinna TA
933,03703-1,Hommiku,59.37948531,24.63678709,933,,Nõmme,,6582560.50,536195.81,Harju1,Tallinna TA
934,03704-1,Hommiku,59.37893058,24.63640732,934,,Nõmme,,6582498.50,536174.81,Harju1,Tallinna TA
935,03705-1,Kalda,59.38231355,24.63804686,935,,Nõmme,,6582876.24,536264.42,Harju1,Tallinna TA
936,03706-1,Kalda,59.3824224,24.63829442,936,,Nõmme,,6582888.50,536278.37,Harju1,Tallinna TA
937,03707-1,Hommiku,59.37929829,24.63707122,937,,Nõmme,,6582539.82,536212.16,Harju1,Tallinna TA
938,03801-1,Kadaka puiestee,59.38720593,24.64119932,938,,Nõmme,,6583422.95,536438.38,Harju1,Tallinna TA
940,03803-1,Nõva,59.38977818,24.64180048,940,,Nõmme,,6583709.82,536469.80,Harju1,Tallinna TA
941,04001-1,Õitse,59.37526685,24.63444071,941,,Nõmme,,6582089.31,536066.89,Harju1,Tallinna TA
942,04002-1,Sireli,59.37344774,24.63348192,942,,Nõmme,,6581886.15,536014.30,Harju1,Tallinna TA
943,04101-1,Pääsküla,59.37039771,24.63205691,943,Pääsküla,Nõmme,,6581545.62,535936.49,Harju1,Tallinna TA
944,04102-1,Sireli,59.37280861,24.6333102,944,,Nõmme,,6581814.86,536005.21,Harju1,Tallinna TA
945,04103-1,Pääsküla jaam,59.36949875,24.63839406,945,,Nõmme,,6581448.89,536297.74,Harju1,Tallinna TA
946,04201-1,Vikerkaare,59.36781432,24.65218019,946,,Nõmme,,6581268.79,537083.39,Harju1,Tallinna TA
948,04203-1,Raba,59.36589675,24.64257876,948,,Nõmme,,6581049.91,536539.51,Harju1,Tallinna TA
154465,7801031-1,Vahi tööstuspark,58.41766417,26.72159926,154465,,Tartu vald,,6478479.50,659004.87,,Tartu MV
949,04301-1,Naaritsa,59.36479125,24.63752794,949,,Nõmme,,6580924.02,536253.48,Harju1,Tallinna TA
950,04302-1,Naaritsa,59.36480231,24.63598798,950,,Nõmme,,6580924.42,536165.90,Harju1,Tallinna TA
951,04303-1,Raba,59.36607995,24.64425133,951,,Nõmme,,6581071.23,536634.42,Harju1,Tallinna TA
146565,23847-1,Laagri,59.34459155,24.6223998,146565,,Saku vald,,6578665.75,535414.11,Harju2,Harjumaa ÜTK
955,04405-1,Pärnu maantee,59.36002564,24.62983283,955,,Nõmme,"Laagri suunas",6580389.01,535820.89,Harju1,Tallinna TA
122420,7820139-1,Lõunakeskus,58.35881504,26.67327622,122420,,Ülenurme vald,,6471816.65,656444.34,TartuLinn,Tartu LV
959,04604-1,Rohula,59.36528156,24.63130193,959,,Nõmme,"Pärnu maanteel Laagri suunas",6580975.29,535898.93,Harju1,Tallinna TA
4643,21538-1,Suurupi tee,59.45314336,24.40830769,4643,,Harku vald,,6590665.00,523159.00,Harju2,Harjumaa ÜTK
962,04701-1,Hiiu jaam,59.38442248,24.67313292,962,,Nõmme,,6583130.66,538256.17,Harju1,Tallinna TA
963,04702-1,Hiiu jaam,59.38459996,24.67307905,963,,Nõmme,,6583150.40,538252.91,Harju1,Tallinna TA
966,04705-1,Vääna,59.38407086,24.65207845,966,,Nõmme,,6583079.67,537060.00,Harju1,Tallinna TA
968,04707-1,Tähetorni,59.38648799,24.64645704,968,,Nõmme,,6583345.84,536737.93,Harju1,Tallinna TA
969,04708-1,Tähetorni,59.38650105,24.64666582,969,,Nõmme,,6583347.41,536749.78,Harju1,Tallinna TA
970,04709-1,Kadaka puiestee,59.38710344,24.64171124,970,,Nõmme,,6583411.81,536467.58,Harju1,Tallinna TA
971,04801-1,Raudtee,59.38311484,24.67246321,971,,Nõmme,"Nõmme suunas",6582984.61,538219.57,Harju1,Tallinna TA
972,04802-1,Raudtee,59.38302797,24.67112285,972,,Nõmme,"Männiku suunas",6582974.17,538143.49,Harju1,Tallinna TA
29351,4400645-1,Reiska,59.03533077,27.24297765,29351,,Alutaguse vald,"Jõhvi suunas",6548551.16,686118.84,,Ida-Viru MV
974,05001-1,Kivimäe jaam,59.3786998,24.65545918,974,,Nõmme,,6582483.22,537257.98,Harju1,Tallinna TA
975,05002-1,Kivimäe jaam,59.3784425,24.6544365,975,,Nõmme,,6582453.99,537200.13,Harju1,Tallinna TA
26216,4400091-1,Linnu tee,59.0028,27.32357222,26216,,Alutaguse vald,"Kauksi suunas",6545158.40,690920.00,,Ida-Viru MV
977,05004-1,Laane,59.3757795,24.64877091,977,,Nõmme,,6582154.21,536880.96,Harju1,Tallinna TA
982,05102-1,J. V. Jannseni,59.37290392,24.66433653,982,,Nõmme,"Laagri suunas",6581842.54,537768.97,Harju1,Tallinna TA
983,05103-1,Hõimu,59.37026397,24.65809672,983,,Nõmme,"Laagri suunas",6581544.96,537417.12,Harju1,Tallinna TA
986,05201-1,Hiiu,59.37659629,24.67765161,986,Hiiu,Nõmme,"Hiiu tänaval",6582261.43,538521.78,Harju1,Tallinna TA
1001,05701-1,Valdeku,59.38088078,24.70038109,1001,,Nõmme,"Vabaduse puiesteel Kesklinna suunas",6582751.98,539808.83,Harju1,Tallinna TA
990,05401-1,Nõmme,59.38745224,24.68673122,990,,Nõmme,"Pärnu maanteel Kesklinna suunas",6583476.00,539025.52,Harju1,Tallinna TA
20545,8600359-1,Luiga,57.76267074,27.09822078,20545,,Võru vald,"Uue-Saaluse suunas",6406559.99,684362.02,,Võru MV
992,05403-1,Nõmme,59.38879525,24.68334076,992,,Nõmme,"Nõmme turu ees",6583623.64,538831.33,Harju1,Tallinna TA
993,05404-1,Võsu,59.38612506,24.67753202,993,,Nõmme,,6583322.84,538504.26,Harju1,Tallinna TA
995,05406-1,Kõue,59.38695505,24.69116035,995,,Nõmme,,6583423.20,539277.78,Harju1,Tallinna TA
996,05407-1,Kõue,59.38693911,24.69004136,996,,Nõmme,,6583420.77,539214.21,Harju1,Tallinna TA
997,05501-1,Roheline,59.38638745,24.69109046,997,,Nõmme,,6583359.93,539274.46,Harju1,Tallinna TA
998,05502-1,Roheline,59.38657081,24.69230907,998,,Nõmme,,6583381.07,539343.50,Harju1,Tallinna TA
150638,6701273-1,Vana-Sauga,58.3928668,24.47189918,150638,,Pärnu linn,"Saabuvad bussid",6472588.50,527596.68,,Pärnu MV
32331,5900786-1,Tapa haigla,59.270072,25.964134,32331,,Tapa vald,,6571839.67,611986.52,Viru2D,Lääne-Viru MV
153189,8200848-1,Kitse,57.85187058,26.41866628,153189,,Tõlliste vald,,6414825.50,643586.43,,Valga MV
27325,8600361-1,Lusti,57.78593691,26.50763069,27325,,Antsla vald,"Antsla suunas",6407680.94,649139.95,,Võru MV
999,05601-1,Kaare,59.37761573,24.68669359,999,,Nõmme,,6582380.22,539034.60,Harju1,Tallinna TA
1000,05602-1,Kaare,59.37755459,24.68542272,1000,,Nõmme,,6582372.67,538962.43,Harju1,Tallinna TA
1002,05702-1,Valdeku,59.38050494,24.69867223,1002,,Nõmme,"Vabaduse puiesteel Laagri suunas",6582709.10,539712.14,Harju1,Tallinna TA
1003,05703-1,Valdeku,59.38031251,24.70013335,1003,,Nõmme,"Valdeku tänaval Männiku suunas",6582688.53,539795.41,Harju1,Tallinna TA
1004,05704-1,Nurme,59.37946768,24.69519586,1004,,Nõmme,,6582591.50,539515.75,Harju1,Tallinna TA
1005,05705-1,Nurme,59.37920907,24.6935963,1005,,Nõmme,,6582561.75,539425.13,Harju1,Tallinna TA
23260,8600365-1,Luutsniku,57.62705096,26.99889926,23260,,Rõuge vald,"Palli suunas",6391201.05,679130.93,,Võru MV
1008,05901-1,Karusmarja,59.3803869,24.71776619,1008,,Nõmme,,6582707.41,540797.53,Harju1,Tallinna TA
1009,05902-1,Karusmarja,59.37986238,24.71743657,1009,,Nõmme,,6582648.78,540779.42,Harju1,Tallinna TA
1010,05903-1,P. Kerese,59.37794033,24.71791351,1010,,Nõmme,,6582434.96,540808.82,Harju1,Tallinna TA
1011,05904-1,P. Kerese,59.37707604,24.71766457,1011,,Nõmme,,6582338.53,540795.70,Harju1,Tallinna TA
1014,06101-1,Männiku,59.36682502,24.7179824,1014,,Nõmme,,6581196.80,540825.99,Harju1,Tallinna TA
1017,06105-1,Kauge,59.37176779,24.71713623,1017,,Nõmme,,6581746.89,540771.99,Harju1,Tallinna TA
1018,06106-1,Pihlaka,59.37349963,24.71812275,1018,,Nõmme,,6581940.41,540826.01,Harju1,Tallinna TA
1019,06107-1,Pihlaka,59.37443882,24.71780682,1019,,Nõmme,,6582044.84,540806.93,Harju1,Tallinna TA
1023,06202-1,Rahumäe,59.38871106,24.70191492,1023,,Nõmme,,6583625.16,539886.88,Harju1,Tallinna TA
1024,06203-1,Kalmistu,59.39223317,24.70858714,1024,,Nõmme,,6584021.50,540261.87,Harju1,Tallinna TA
1026,06301-1,Rahumäe,59.38870426,24.70481322,1026,,Nõmme,,6583626.13,540051.58,Harju1,Tallinna TA
1027,06302-1,Rahumäe,59.38868587,24.70372087,1027,,Nõmme,,6583623.43,539989.53,Harju1,Tallinna TA
981,05101-1,J. V. Jannseni,59.37366867,24.66727737,981,,Nõmme,"Kesklinna suunas",6581929.39,537935.31,Harju1,Tallinna TA
1029,06304-1,Näituse,59.38535105,24.71099393,1029,,Nõmme,,6583256.30,540406.75,Harju1,Tallinna TA
24468,4400484-1,Kurepesa,59.3838312,27.81294088,24468,,Narva-Jõesuu linn,"Sinimäe suunas",6589030.46,716591.60,,Ida-Viru MV
1033,06404-1,Kirde,59.38973218,24.71098765,1033,,Nõmme,,6583744.34,540401.22,Harju1,Tallinna TA
154153,44201-1,Jäähall,59.364831,28.187126,154153,,Narva linn,,6588185.36,737952.60,,Narva LV
1035,06406-1,Liiva,59.38840959,24.71944248,1035,,Nõmme,,6583602.13,540883.22,Harju1,Tallinna TA
1036,06407-1,Liiva,59.38821228,24.71804474,1036,,Nõmme,,6583579.30,540804.03,Harju1,Tallinna TA
1037,06408-1,Liiva jaam,59.38697976,24.71812534,1037,,Nõmme,,6583442.05,540810.08,Harju1,Tallinna TA
1038,06409-1,Liiva jaam,59.38685906,24.7177061,1038,,Nõmme,,6583428.35,540786.40,Harju1,Tallinna TA
1039,06410-1,Värava,59.38500918,24.71767434,1039,,Nõmme,,6583222.26,540786.80,Harju1,Tallinna TA
1040,06411-1,Värava,59.3843958,24.71727682,1040,,Nõmme,,6583153.69,540764.94,Harju1,Tallinna TA
1041,06601-1,Kalmu,59.37563188,24.72550337,1041,,Nõmme,,6582182.45,541243.02,Harju1,Tallinna TA
1982,21103-1,Balti jaam,59.4397844,24.73777381,1982,Tallinn; Balti Jaam,Põhja-Tallinn,,6589336.47,541861.93,Harju1,Tallinna TA
1044,06604-1,Liiva kalmistu,59.3758776,24.7338764,1044,,Nõmme,,6582215.00,541718.68,Harju1,Tallinna TA
1045,06605-1,Raku,59.37627583,24.74244279,1045,,Nõmme,,6582264.72,542205.15,Harju1,Tallinna TA
1047,06609-1,Kaarla,59.36755714,24.75650437,1047,,Nõmme,,6581302.43,543015.42,Harju1,Tallinna TA
1050,06701-1,Energia,59.3971521,24.71040995,1050,,Kristiine,,6584570.55,540359.64,Harju1,Tallinna TA
1051,06702-1,Energia,59.39664688,24.7098126,1051,,Kristiine,,6584513.91,540326.30,Harju1,Tallinna TA
1052,06703-1,Tuisu,59.40025249,24.71096745,1052,,Kristiine,,6584916.26,540387.65,Harju1,Tallinna TA
1053,06801-1,Järve,59.4000154,24.72813431,1053,Järve,Kristiine,,6584900.31,541363.09,Harju1,Tallinna TA
1054,06802-1,Virve,59.39768767,24.72596025,1054,,Kristiine,,6584639.67,541242.40,Harju1,Tallinna TA
1056,06902-1,Koolimaja,59.41840339,24.72176867,1056,,Kristiine,,6586944.78,540979.45,Harju1,Tallinna TA
1057,06903-1,Hauka,59.421741,24.72465673,1057,,Kristiine,,6587318.35,541139.40,Harju1,Tallinna TA
1058,06904-1,Kotka,59.42119209,24.7296409,1058,,Kristiine,,6587260.27,541423.01,Harju1,Tallinna TA
1059,06905-1,Kotka,59.4203102,24.72980315,1059,,Kristiine,,6587162.13,541433.29,Harju1,Tallinna TA
1060,07001-1,Nõmme tee,59.41164963,24.7157445,1060,,Kristiine,,6586188.76,540645.46,Harju1,Tallinna TA
1061,07002-1,Räägu,59.41500286,24.71873915,1061,,Kristiine,,6586564.12,540811.51,Harju1,Tallinna TA
1062,07101-1,Västriku,59.40902768,24.72502315,1062,,Kristiine,,6585902.34,541175.51,Harju1,Tallinna TA
1063,07102-1,Tondi,59.41050467,24.73147351,1063,Tondi,Kristiine,,6586070.85,541540.03,Harju1,Tallinna TA
1064,07103-1,Tondi,59.41103423,24.73226161,1064,Tondi,Kristiine,,6586130.33,541584.14,Harju1,Tallinna TA
1065,07104-1,Ööbiku,59.41462978,24.73247916,1065,,Kristiine,,6586531.00,541592.12,Harju1,Tallinna TA
1066,07201-1,Tuisu,59.40137277,24.7112379,1066,,Kristiine,,6585041.22,540401.69,Harju1,Tallinna TA
1067,07202-1,Tüve,59.40574402,24.71013066,1067,,Kristiine,,6585527.50,540333.64,Harju1,Tallinna TA
1068,07203-1,Marsi,59.40529855,24.71786243,1068,,Kristiine,,6585482.55,540773.30,Harju1,Tallinna TA
1069,07204-1,Marsi,59.4049352,24.71650631,1069,,Kristiine,,6585441.25,540696.71,Harju1,Tallinna TA
1070,07205-1,Nõmme tee,59.41096775,24.71607432,1070,,Kristiine,,6586113.00,540665.00,Harju1,Tallinna TA
1073,07208-1,Västriku,59.40780927,24.72360082,1073,,Kristiine,,6585765.74,541096.20,Harju1,Tallinna TA
1074,07209-1,Sõjakooli,59.4023402,24.71852427,1074,,Kristiine,,6585153.40,540814.42,Harju1,Tallinna TA
1076,07301-1,Tallinn-Väike,59.41495948,24.73996036,1076,,Kesklinn,,6586572.39,542016.50,Harju1,Tallinna TA
14571,22062-1,Kiili kool,59.30269651,24.84285627,14571,,Kiili vald,,6574136.00,548016.00,Harju2,Harjumaa ÜTK
1082,07404-1,Hallivanamehe,59.4060875,24.73294362,1082,,Kesklinn,,6585579.70,541628.89,Harju1,Tallinna TA
1086,07407-1,Tallinn-Väike,59.41443768,24.73945964,1086,,Kesklinn,,6586513.95,541988.71,Harju1,Tallinna TA
1089,07501-1,Tallinn-Väike,59.41337415,24.74837603,1089,,Kesklinn,,6586401.09,542496.31,Harju1,Tallinna TA
1090,07502-1,Auru,59.41276545,24.75255813,1090,,Kesklinn,,6586335.94,542734.54,Harju1,Tallinna TA
1092,07601-1,Tedre,59.41935967,24.7123655,1092,,Kristiine,,6587045.60,540444.46,Harju1,Tallinna TA
1093,07602-1,Koolimaja,59.41745299,24.72066082,1093,,Kristiine,,6586838.23,540917.69,Harju1,Tallinna TA
1094,07701-1,Tüve,59.40520655,24.70920359,1094,,Kristiine,,6585467.07,540281.62,Harju1,Tallinna TA
1096,07703-1,Vilja,59.41255748,24.70869303,1096,,Kristiine,,6586285.64,540243.97,Harju1,Tallinna TA
1097,07704-1,Linnu tee,59.41335994,24.70823874,1097,,Kristiine,,6586374.76,540217.23,Harju1,Tallinna TA
26066,8600372-1,Lüütsepa tee,57.59265863,26.78026643,26066,,Rõuge vald,"Alska suunas",6386811.06,666238.01,,Võru MV
1100,07707-1,Nõmme tee,59.41031398,24.71425531,1100,,Kristiine,,6586039.07,540562.48,Harju1,Tallinna TA
1101,07708-1,Räägu,59.41433287,24.71787654,1101,,Kristiine,,6586488.96,540763.33,Harju1,Tallinna TA
1102,07801-1,Tedre,59.41976682,24.71320045,1102,,Kristiine,,6587091.46,540491.38,Harju1,Tallinna TA
1103,07802-1,Tihase,59.42275453,24.71532543,1103,,Kristiine,,6587425.57,540608.47,Harju1,Tallinna TA
34011,4490001-1,Auvere,59.36335867,27.92466604,34011,,Narva-Jõesuu linn,"Narva suunas",6587119.71,723064.30,,Ida-Viru MV
25192,5900211-1,Karkuse tee,59.31045,26.389955,25192,,Vinni vald,,6577122.85,636095.42,Viru1,Lääne-Viru MV
1109,07808-1,Lilleküla jaam,59.42391986,24.72511057,1109,,Kristiine,,6587561.35,541162.54,Harju1,Tallinna TA
1110,07901-1,Pirni,59.42928943,24.69812317,1110,,Haabersti,,6588143.26,539624.37,Harju1,Tallinna TA
21773,7800123-1,Härjanurme,58.32453642,26.4002773,21773,,Elva vald,"Karijärve suunas",6467397.00,640611.81,,Tartu MV
1112,07903-1,Välja,59.42526814,24.70105637,1112,,Kristiine,,6587697.03,539795.53,Harju1,Tallinna TA
1113,07904-1,Välja,59.42539756,24.70077416,1113,,Kristiine,,6587711.28,539779.36,Harju1,Tallinna TA
1114,07905-1,Hipodroom,59.42828758,24.70911631,1114,,Kristiine,,6588038.20,540249.48,Harju1,Tallinna TA
1115,07906-1,Hipodroom,59.42840192,24.70343047,1115,,Kristiine,,6588047.54,539926.63,Harju1,Tallinna TA
1116,08001-1,Marja,59.42219058,24.69832961,1116,,Kristiine,,6587352.58,539644.32,Harju1,Tallinna TA
1117,08101-1,Aiandi,59.4148154,24.69138279,1117,,Kristiine,,6586526.91,539258.43,Harju1,Tallinna TA
1120,08202-1,Aiandi,59.41432079,24.68943042,1120,,Mustamäe,,6586470.67,539148.14,Harju1,Tallinna TA
1121,08203-1,Aiandi,59.41467013,24.68887107,1121,,Mustamäe,,6586509.26,539115.98,Harju1,Tallinna TA
1125,08302-1,Marja,59.42126736,24.69693325,1125,,Kristiine,,6587248.91,539566.12,Harju1,Tallinna TA
1126,08601-1,Humala,59.42952405,24.69246882,1126,,Haabersti,,6588166.07,539303.18,Harju1,Tallinna TA
1128,08701-1,Looga,59.42778081,24.67261956,1128,,Haabersti,,6587960.41,538178.56,Harju1,Tallinna TA
1129,08702-1,Mustjõe,59.42868222,24.68092007,1129,,Haabersti,,6588065.58,538648.67,Harju1,Tallinna TA
1130,08801-1,Looga,59.4282495,24.67333546,1130,,Haabersti,,6588013.03,538218.67,Harju1,Tallinna TA
1132,08901-1,Hipodroom,59.42897685,24.70719075,1132,,Kristiine,,6588113.83,540139.38,Harju1,Tallinna TA
1133,08902-1,Hipodroom,59.42987865,24.70637178,1133,,Kristiine,,6588213.80,540091.84,Harju1,Tallinna TA
1134,08903-1,Mooni,59.42768486,24.71370484,1134,,Kristiine,,6587973.82,540510.63,Harju1,Tallinna TA
1135,08904-1,Taksopark,59.42747195,24.72194875,1135,,Kristiine,,6587955.11,540978.80,Harju1,Tallinna TA
1136,08905-1,Taksopark,59.42777446,24.71901444,1136,,Kristiine,,6587987.02,540811.89,Harju1,Tallinna TA
1137,08906-1,Taksopark,59.42800562,24.72032519,1137,,Kristiine,,6588013.57,540886.01,Harju1,Tallinna TA
24494,8400149-1,Kabila,58.4766576,25.47891667,24494,,Põhja-Sakala vald,"Sürgavere suunas",6482775.07,586275.08,,Viljandi MV
27988,8600375-1,Madala,57.89219671,27.30524708,27988,,Võru vald,"Jantra suunas",6421556.96,695961.04,,Võru MV
1141,08910-1,Ristiku,59.43385472,24.72119266,1141,,Kristiine,,6588665.68,540928.24,Harju1,Tallinna TA
1142,08911-1,Ülase,59.43067919,24.71808831,1142,,Kristiine,,6588310.04,540755.86,Harju1,Tallinna TA
1143,08912-1,Ülase,59.4309715,24.71819841,1143,,Kristiine,,6588342.67,540761.76,Harju1,Tallinna TA
1144,09001-1,Sepa,59.46044525,24.67005381,1144,,Põhja-Tallinn,,6591597.77,537996.58,Harju1,Tallinna TA
1145,09002-1,Sepa,59.45952995,24.67215942,1145,,Põhja-Tallinn,,6591497.00,538117.00,Harju1,Tallinna TA
1146,09003-1,Sepa,59.45979174,24.67187249,1146,,Põhja-Tallinn,,6591526.00,538100.43,Harju1,Tallinna TA
155982,4401154-1,Kassikaku,59.00921873,27.45097265,155982,,Alajõe vald,"Kauksi suunas",6546242.00,698195.31,,Ida-Viru MV
1149,09006-1,Kopli,59.46116333,24.66756824,1149,,Põhja-Tallinn,,6591676.36,537854.84,Harju1,Tallinna TA
1150,09007-1,Kopli,59.46126865,24.66917465,1150,,Põhja-Tallinn,,6591689.00,537945.81,Harju1,Tallinna TA
1153,09102-1,Sirbi,59.45466464,24.68276992,1153,,Põhja-Tallinn,,6590961.08,538724.20,Harju1,Tallinna TA
1155,09104-1,Sirbi,59.4548855,24.68168889,1155,,Põhja-Tallinn,,6590985.06,538662.64,Harju1,Tallinna TA
1159,09301-1,Lahesuu,59.4559134,24.69914816,1159,,Põhja-Tallinn,,6591109.76,539651.63,Harju1,Tallinna TA
155418,7820378-1,Kvartsi,58.35183198,26.68813331,155418,,Tartu linn,"Kesklinna suunas",6471074.27,657344.50,,Tartu LV
1160,09302-1,Lahesuu,59.45616283,24.69947472,1160,,Põhja-Tallinn,,6591137.74,539669.86,Harju1,Tallinna TA
1161,09303-1,Paljassaare,59.46012946,24.70331437,1161,,Põhja-Tallinn,,6591581.90,539882.98,Harju1,Tallinna TA
1162,09304-1,Paljassaare,59.45992959,24.70439957,1162,,Põhja-Tallinn,,6591560.28,539944.75,Harju1,Tallinna TA
1163,09305-1,Paljassaare põik,59.46497249,24.69957991,1163,,Põhja-Tallinn,,6592119.20,539665.59,Harju1,Tallinna TA
1164,09401-1,Madala,59.44930766,24.69799465,1164,,Põhja-Tallinn,,6590373.20,539593.87,Harju1,Tallinna TA
4640,21533-1,Kolmiku,59.45432684,24.44345037,4640,,Harku vald,"",6590809.50,525151.37,Harju2,Harjumaa ÜTK
10808,15100-1,Kumu,59.43550254,24.79838142,10808,,Lasnamäe,,6588898.86,545306.38,Harju1,Tallinna TA
1168,09501-1,Randla,59.44859572,24.69161088,1168,,Põhja-Tallinn,,6590290.14,539232.58,Harju1,Tallinna TA
20010,5700302-1,Piirsalu,59.04144,24.03919,20010,,Lääne-Nigula vald,,6544732.31,502249.64,,Lääne MV
1170,09503-1,Lõime,59.45234692,24.69314388,1170,,Põhja-Tallinn,,6590708.92,539315.22,Harju1,Tallinna TA
1171,09504-1,Madala,59.44932456,24.69751495,1171,,Põhja-Tallinn,,6590374.80,539566.64,Harju1,Tallinna TA
23974,8600377-1,Madise,57.93487396,26.48415299,23974,,Antsla vald,"Koigu suunas",6424206.02,647130.07,,Võru MV
1173,09601-1,Pelguranna,59.44687626,24.69102501,1173,,Põhja-Tallinn,,6590098.25,539201.32,Harju1,Tallinna TA
1174,09602-1,Kari,59.44811999,24.69661296,1174,,Põhja-Tallinn,,6590240.08,539516.87,Harju1,Tallinna TA
1176,09604-1,Puhangu,59.44609449,24.69947584,1176,,Põhja-Tallinn,,6590016.13,539681.62,Harju1,Tallinna TA
123046,7820208-1,Raudteejaam,58.37397452,26.70682144,123046,,Tartu linn,"Tähtvere suunas",6473582.44,658338.28,TartuLinn,Tartu LV
1178,09701-1,Niidi,59.44952561,24.6994331,1178,,Põhja-Tallinn,,6590398.33,539675.21,Harju1,Tallinna TA
1179,09702-1,Sitsi,59.45300614,24.70319394,1179,,Põhja-Tallinn,,6590788.29,539884.47,Harju1,Tallinna TA
1183,09802-1,Angerja,59.45005541,24.70975484,1183,,Põhja-Tallinn,,6590463.50,540260.06,Harju1,Tallinna TA
1184,09803-1,Angerja,59.45032179,24.70946397,1184,,Põhja-Tallinn,,6590493.00,540243.25,Harju1,Tallinna TA
1187,09806-1,Tööstuse,59.45374997,24.70505319,1187,,Põhja-Tallinn,,6590872.26,539989.05,Harju1,Tallinna TA
1188,09807-1,Tööstuse,59.45398662,24.70620521,1188,,Põhja-Tallinn,,6590899.31,540054.11,Harju1,Tallinna TA
1191,09810-1,Erika,59.45212,24.71671187,1191,,Põhja-Tallinn,,6590697.69,540652.22,Harju1,Tallinna TA
1192,09811-1,Erika,59.45221261,24.7184644,1192,,Põhja-Tallinn,,6590709.07,540751.51,Harju1,Tallinna TA
24049,4400357-1,Laagna,59.39020774,27.98273773,24049,,Narva-Jõesuu linn,"Narva suunas",6590300.04,726183.55,,Ida-Viru MV
1195,09902-1,Nisu,59.44314925,24.70439126,1195,,Põhja-Tallinn,,6589690.95,539963.91,Harju1,Tallinna TA
1196,09903-1,Maisi,59.44118778,24.71297577,1196,,Põhja-Tallinn,,6589477.59,540453.26,Harju1,Tallinna TA
26673,7820163-1,Nooruse,58.36643193,26.69527154,26673,,Tartu linn,,6472715.83,657696.77,TartuLinn,Tartu LV
1198,09905-1,Maisi,59.44167223,24.71354391,1198,,Põhja-Tallinn,,6589531.90,540484.92,Harju1,Tallinna TA
1199,09906-1,Rukki,59.44524749,24.71093588,1199,,Põhja-Tallinn,,6589928.61,540332.73,Harju1,Tallinna TA
1201,10001-1,Sõle,59.43314517,24.71576991,1201,,Põhja-Tallinn,,6588583.34,540621.35,Harju1,Tallinna TA
1202,10002-1,Ädala,59.43613031,24.71174397,1202,,Põhja-Tallinn,,6588913.45,540389.35,Harju1,Tallinna TA
1203,10003-1,Kolde puiestee,59.43984912,24.70939506,1203,,Põhja-Tallinn,,6589326.31,540251.68,Harju1,Tallinna TA
1204,10004-1,Maisi,59.44084544,24.71321908,1204,,Põhja-Tallinn,,6589439.60,540467.47,Harju1,Tallinna TA
1208,10008-1,Härjapea,59.43842073,24.71679071,1208,,Põhja-Tallinn,,6589171.65,540673.00,Harju1,Tallinna TA
1209,10101-1,Ädala,59.43548151,24.71198492,1209,,Põhja-Tallinn,,6588841.32,540403.79,Harju1,Tallinna TA
1210,10201-1,Kolde puiestee,59.43926042,24.70791138,1210,,Põhja-Tallinn,,6589259.84,540168.19,Harju1,Tallinna TA
26708,6700067-1,Ata,58.44128022,24.55244816,26708,,Sauga vald,,6478016.50,532262.68,,Pärnu MV
1212,10301-1,Volta,59.44901824,24.72567216,1212,,Põhja-Tallinn,,6590357.62,541164.17,Harju1,Tallinna TA
1213,10302-1,Volta,59.44987448,24.72426198,1213,,Põhja-Tallinn,,6590452.14,541083.15,Harju1,Tallinna TA
138694,6701259-1,Pöördetamme,58.49516148,24.96352393,138694,,Tori vald,,6484288.40,556181.80,,Pärnu MV
1217,10306-1,Kalamaja,59.44463144,24.73714115,1217,,Põhja-Tallinn,,6589876.03,541820.10,Harju1,Tallinna TA
1218,10401-1,Volta,59.44398539,24.72246213,1218,,Põhja-Tallinn,,6589795.00,540988.12,Harju1,Tallinna TA
1219,10402-1,Volta,59.44421165,24.72212759,1219,,Põhja-Tallinn,,6589820.00,540968.87,Harju1,Tallinna TA
1220,10403-1,Telliskivi,59.44164713,24.73218278,1220,,Põhja-Tallinn,,6589540.50,541542.43,Harju1,Tallinna TA
1225,10601-1,Linnahall,59.44330474,24.75033964,1225,,Kesklinn,,6589736.54,542570.51,Harju1,Tallinna TA
1227,10603-1,Linnahall,59.44383424,24.75141717,1227,,Põhja-Tallinn,,6589796.21,542630.98,Harju1,Tallinna TA
1230,10702-1,F. R. Kreutzwaldi,59.43832943,24.76978368,1230,,Kesklinn,,6589194.80,543679.98,Harju1,Tallinna TA
133989,7801268-1,Vesneri keskus,58.43299452,26.84496611,133989,Vesneri,Tartu vald,,6480484.50,666135.75,,Tartu MV
32093,4400555-1,Peeterristi,59.4029202,28.06590069,32093,,Narva-Jõesuu linn,"Riigiküla suunas",6591997.00,730814.93,,Ida-Viru MV
1234,10801-1,Balti jaam,59.44108571,24.73787806,1234,Tallinn; Balti Jaam,Põhja-Tallinn,,6589481.50,541866.25,Harju1,Tallinna TA
1235,10802-1,Telliskivi,59.4416036,24.73274697,1235,,Põhja-Tallinn,,6589536.00,541574.50,Harju1,Tallinna TA
1237,11001-1,Tehnika,59.43457112,24.7259858,1237,,Kesklinn,,6588748.42,541199.38,Harju1,Tallinna TA
1238,11002-1,Tehnika,59.43375468,24.72365421,1238,,Kesklinn,,6588656.04,541068.05,Harju1,Tallinna TA
1239,11003-1,Kelmiküla,59.43619864,24.72806233,1239,,Põhja-Tallinn,,6588931.00,541315.25,Harju1,Tallinna TA
1240,11101-1,Endla,59.42933927,24.72500792,1240,,Kesklinn,,6588165.00,541150.18,Harju1,Tallinna TA
1242,11103-1,Tõnismägi,59.43027007,24.73631598,1242,,Kesklinn,,6588275.68,541790.85,Harju1,Tallinna TA
1243,11201-1,Koidu,59.42880884,24.73161106,1243,,Kesklinn,,6588109.98,541525.60,Harju1,Tallinna TA
1244,11202-1,Virmalise,59.42133473,24.73717989,1244,,Kesklinn,,6587280.84,541850.82,Harju1,Tallinna TA
1246,11204-1,Lilleküla jaam,59.42500299,24.72979114,1246,,Kesklinn,,6587684.89,541426.92,Harju1,Tallinna TA
1248,11302-1,Vineeri,59.42465199,24.74272906,1248,,Kesklinn,"Trammi peatus kesklinna suunas",6587653.85,542161.75,Harju1,Tallinna TA
24187,8600380-1,Marat,57.83579959,26.50617878,24187,,Antsla vald,"Antsla suunas",6413227.50,648846.18,,Võru MV
1252,11306-1,Vana-Lõuna,59.42280402,24.74591923,1252,,Kesklinn,"Vana-Lõuna tänaval",6587450.00,542345.12,Harju1,Tallinna TA
1254,11308-1,Veerenni,59.42500418,24.74757665,1254,,Kesklinn,,6587696.14,542436.48,Harju1,Tallinna TA
11529,23147-1,Vägeva,59.39162,24.81344,11529,,Rae vald,,6584020.78,546220.16,Harju2,Harjumaa ÜTK
1257,11401-1,Gonsiori,59.43440016,24.76789613,1257,,Kesklinn,,6588755.86,543577.89,Harju1,Tallinna TA
1258,11402-1,Gonsiori,59.43398379,24.76997513,1258,,Kesklinn,,6588710.83,543696.40,Harju1,Tallinna TA
1259,11501-1,Laulupeo,59.43318377,24.77774981,1259,,Kesklinn,,6588626.80,544138.63,Harju1,Tallinna TA
1260,11502-1,Laulupeo,59.433074,24.77712387,1260,,Kesklinn,,6588614.16,544103.25,Harju1,Tallinna TA
1489,16504-1,Iru,59.46018611,24.90493205,1489,,Lasnamäe,,6591725.27,551315.45,Harju2,Tallinna TA
28567,8600385-1,Matsi,57.66063423,26.70076054,28567,,Rõuge vald,"Vana-Roosa suunas",6394181.94,661182.03,,Võru MV
138693,6701260-1,Ritsu,58.49091245,24.94338398,138693,,Tori vald,,6483798.50,555014.20,,Pärnu MV
1769,10902-1,Toompark,59.43682472,24.73332737,1769,,Kesklinn,,6589004.00,541613.25,Harju1,Tallinna TA
4724,23329-1,Uuemäe,59.39537101,24.59333651,4724,,Haabersti,,6584307.50,533710.43,Harju1,Tallinna TA
153677,22417-1,Kiviposti,59.20683218,25.2654004,153677,,Kose vald,,6563837.10,572286.64,Harju4,Harjumaa ÜTK
24026,5700303-1,Piirsalu,59.04149,24.03896,24026,,Lääne-Nigula vald,,6544737.87,502236.43,,Lääne MV
138692,6701258-1,Pöördetamme,58.49515862,24.96366621,138692,,Tori vald,,6484288.20,556190.10,,Pärnu MV
1274,11803-2,J. Poska,59.44097748,24.78700999,1274,,Kesklinn,,6589501.13,544653.95,Harju1,Tallinna TA
1275,11803-1,J. Poska,59.44082977,24.7866569,1275,,Kesklinn,,6589484.44,544634.11,Harju1,Tallinna TA
1280,12001-1,Vabaduse väljak,59.43281153,24.74712861,1280,,Kesklinn,,6588565.58,542401.36,Harju1,Tallinna TA
1281,12002-1,Vabaduse väljak,59.43298613,24.74720697,1281,,Kesklinn,,6588585.08,542405.59,Harju1,Tallinna TA
1283,12003-1,Vabaduse väljak,59.43251,24.74267079,1283,,Kesklinn,,6588529.18,542148.75,Harju1,Tallinna TA
1284,12003-2,Vabaduse väljak,59.43235258,24.74205839,1284,,Kesklinn,,6588511.26,542114.19,Harju1,Tallinna TA
1286,12004-1,Vabaduse väljak,59.43387951,24.74660551,1286,,Kesklinn,,6588684.22,542370.35,Harju1,Tallinna TA
1287,12005-1,Vabaduse väljak,59.43201832,24.74584874,1287,,Kesklinn,,6588476.41,542329.71,Harju1,Tallinna TA
1288,12006-1,Vabaduse väljak,59.43270629,24.74588385,1288,,Kesklinn,,6588553.07,542330.85,Harju1,Tallinna TA
1289,12007-1,Vabaduse väljak,59.43321749,24.74579439,1289,,Kesklinn,,6588609.96,542325.14,Harju1,Tallinna TA
1290,12101-1,Viru,59.43617591,24.75148894,1290,,Kesklinn,,6588943.13,542644.61,Harju1,Tallinna TA
1291,12101-2,Viru,59.43605589,24.75112697,1291,,Kesklinn,,6588929.53,542624.22,Harju1,Tallinna TA
1293,12103-1,Mere puiestee,59.43765672,24.75320334,1293,Tallinn,Kesklinn,,6589109.18,542740.04,Harju1,Tallinna TA
142492,7801307-1,Laanemetsa,58.475902,27.05709628,142492,,Peipsiääre vald,"Aravuste suunas",6485803.50,678297.37,,Tartu MV
1295,12201-1,A. Laikmaa,59.436445,24.757522,1295,,Kesklinn,,6588976.95,542986.61,Harju1,Tallinna TA
1298,12204-1,Hobujaama,59.43750229,24.75699675,1298,,Kesklinn,,6589094.40,542955.48,Harju1,Tallinna TA
1300,12206-1,Hobujaama,59.43801698,24.75740945,1300,,Kesklinn,,6589152.00,542978.25,Harju1,Tallinna TA
1303,12209-1,Mere puiestee,59.43834487,24.75406693,1303,Tallinn,Kesklinn,,6589186.39,542788.18,Harju1,Tallinna TA
1306,12212-1,Pronksi,59.43745681,24.76375262,1306,,Kesklinn,,6589093.68,543338.88,Harju1,Tallinna TA
155780,"",Põllu (õpilasliin),58.36419841,22.16364777,155780,,Kihelkonna vald,,6470769.50,392535.15,,Saare MV
1308,12214-1,Pronksi,59.43712326,24.76218373,1308,,Kesklinn,,6589055.51,543250.28,Harju1,Tallinna TA
1310,12215-1,Pronksi,59.43720844,24.7621851,1310,,Kesklinn,,6589065.00,543250.25,Harju1,Tallinna TA
1311,12216-1,Maneeži,59.4365172,24.76063647,1311,,Kesklinn,,6588987.00,543163.25,Harju1,Tallinna TA
1312,12217-1,Maneeži,59.43605169,24.76041463,1312,,Kesklinn,,6588935.00,543151.25,Harju1,Tallinna TA
1313,12218-1,Maneeži,59.43559992,24.76103036,1313,,Kesklinn,,6588885.07,543186.76,Harju1,Tallinna TA
4721,23306-1,Harku,59.38945661,24.55819233,4721,,Saue vald,,6583631.50,531719.25,Harju2,Harjumaa ÜTK
24737,7800405-1,Laeva,58.48588919,26.38044301,24737,,Tartu vald,"Siniküla suunas",6485315.50,638812.75,,Tartu MV
1317,12303-1,Paberi,59.43352504,24.76231369,1317,,Kesklinn,,6588654.76,543262.21,Harju1,Tallinna TA
1318,12305-1,Kivisilla,59.43534522,24.75838995,1318,,Kesklinn,,6588855.00,543037.25,Harju1,Tallinna TA
1319,12305-2,Kivisilla,59.43530769,24.75867108,1319,,Kesklinn,,6588851.00,543053.25,Harju1,Tallinna TA
135246,6500933-1,Ibaste,58.23453013,27.11250145,135246,,Põlva vald,,6459097.50,682773.43,,Põlva MV
156002,"",Valjala Varju-Pihlaka,58.40979168,22.78517065,156002,,Valjala alevik,,6475019.50,428994.15,,Saare MV
34232,4490002-1,Auvere,59.36353557,27.92409977,34232,,Narva-Jõesuu linn,"Tallinna suunas",6587137.50,723031.00,,Ida-Viru MV
136939,6500997-1,Patra,58.11765702,27.17210478,136939,,Põlva vald,"Miiaste suunas",6446259.00,686886.25,,Põlva MV
1324,12403-1,Vabaduse väljak,59.43396285,24.74633015,1324,,Kesklinn,,6588693.33,542354.62,Harju1,Tallinna TA
1325,12501-1,Veerenni,59.42576479,24.74812904,1325,,Kesklinn,,6587781.22,542466.89,Harju1,Tallinna TA
1326,12502-1,Veerenni,59.425592,24.74904224,1326,,Kesklinn,,6587762.55,542518.94,Harju1,Tallinna TA
1327,12503-1,Liivalaia,59.42806757,24.74938386,1327,,Kesklinn,,6588038.54,542535.25,Harju1,Tallinna TA
1330,12602-1,Kosmos,59.42889272,24.74333553,1330,,Kesklinn,,6588126.64,542190.94,Harju1,Tallinna TA
155835,8490251-1,Theo,58.38311948,25.61521135,155835,,Saarepeedi vald,,6472543.32,594475.43,,Viljandi MV
1333,12605-1,Tõnismägi,59.4314756,24.73954377,1333,,Kesklinn,,6588411.99,541972.56,Harju1,Tallinna TA
1334,12607-1,Liivalaia,59.42743986,24.74839845,1334,,Kesklinn,,6587967.99,542480.10,Harju1,Tallinna TA
1006,05706-1,Haava,59.38307036,24.70579918,1006,,Nõmme,,6582999.12,540114.21,Harju1,Tallinna TA
1340,12802-1,Oru,59.44335628,24.80240426,1340,,Kesklinn,,6589776.47,545524.19,Harju1,Tallinna TA
142280,4990064-2,Lohusuu kool,58.95189115,27.0442787,142280,,Lohusuu alevik,"Tartu mnt suunas",6538732.00,675145.00,ViruVälis,Jõgeva ÜTK
1342,12902-1,Juhkentali,59.4228407,24.77094525,1342,,Kesklinn,,6587470.15,543765.72,Harju1,Tallinna TA
153712,8600950-1,Haanja Suusakeskus,57.722988,27.048796,153712,,Rõuge vald,,6402009.93,681623.82,,Võru MV
1344,12904-1,Püssirohu,59.42780435,24.76493176,1344,,Kesklinn,,6588019.18,543418.05,Harju1,Tallinna TA
1345,12905-1,Filtri tee,59.42159976,24.77387736,1345,,Kesklinn,,6587333.83,543933.76,Harju1,Tallinna TA
1347,13002-1,Sossimägi,59.4244784,24.78432419,1347,,Kesklinn,,6587661.39,544523.06,Harju1,Tallinna TA
1348,13008-1,Sossimägi,59.42546779,24.78185719,1348,,Kesklinn,,6587769.97,544381.74,Harju1,Tallinna TA
1349,13005-1,Lindakivi,59.41963464,24.791612,1349,,Kesklinn,,6587126.67,544943.11,Harju1,Tallinna TA
1352,13101-1,Hotell Olümpia,59.43075346,24.75873595,1352,,Kesklinn,,6588343.71,543062.67,Harju1,Tallinna TA
1353,13102-1,Hotell Olümpia,59.42893374,24.7587399,1353,,Kesklinn,,6588141.00,543065.18,Harju1,Tallinna TA
1354,13103-1,Hotell Olümpia,59.43112293,24.76121134,1354,,Kesklinn,,6588386.46,543202.69,Harju1,Tallinna TA
1355,13201-1,Varre,59.41964203,24.75151703,1355,,Kesklinn,,6587101.31,542666.84,Harju1,Tallinna TA
1356,13202-1,Õilme,59.42119629,24.75080854,1356,,Kesklinn,,6587274.00,542624.68,Harju1,Tallinna TA
1358,13302-1,Veerenni,59.42415035,24.74944684,1358,,Kesklinn,,6587602.21,542543.70,Harju1,Tallinna TA
1364,13405-1,Dvigatel,59.42317503,24.80161428,1364,,Lasnamäe,,6587527.80,545506.24,Harju1,Tallinna TA
1365,13406-1,Dvigatel,59.42295889,24.80310974,1365,,Lasnamäe,,6587504.74,545591.42,Harju1,Tallinna TA
1367,13407-1,Lennujaam,59.41622287,24.79887446,1367,Airport,Lasnamäe,,6586751.50,545359.93,Harju1,Tallinna TA
1368,13501-1,Kaubajaama,59.42304273,24.81177372,1368,,Lasnamäe,,6587520.00,546083.12,Harju1,Tallinna TA
1369,13502-1,Kaubajaama,59.42285162,24.81199123,1369,,Lasnamäe,,6587498.86,546095.73,Harju1,Tallinna TA
961,04607-1,Pääsküla jaam,59.36873604,24.63701291,961,,Nõmme,,6581363.18,536220.02,Harju1,Tallinna TA
1374,13701-1,Kesk-Sõjamäe,59.42236457,24.82114295,1374,,Lasnamäe,,6587450.93,546615.90,Harju1,Tallinna TA
1375,13702-1,Orto,59.4210533,24.82537805,1375,,Lasnamäe,,6587307.81,546858.11,Harju1,Tallinna TA
1376,13703-1,Orto,59.42079923,24.82578306,1376,,Lasnamäe,,6587279.79,546881.45,Harju1,Tallinna TA
20048,6701199-1,Vändra,58.65516248,25.04130188,20048,,Vändra alev,,6502175.00,560439.93,,Pärnu MV
153680,22421-1,Veeääre,59.12491195,25.20186424,153680,,Kose vald,,6554646.33,568821.00,Harju4,Harjumaa ÜTK
156177,4420212-1,Hariduse (persp.),59.380533,28.186677,156177,,Narva linn,,6589929.60,737818.01,,Narva LV
1378,13705-1,Tubaka,59.41904592,24.83109033,1378,,Lasnamäe,,6587088.20,547185.16,Harju1,Tallinna TA
1379,13706-1,Suur-Sõjamäe,59.41681298,24.8382238,1379,,Lasnamäe,,6586844.50,547593.25,Harju1,Tallinna TA
1380,13707-1,Suur-Sõjamäe,59.41646565,24.83878982,1380,,Lasnamäe,,6586806.21,547625.87,Harju1,Tallinna TA
1382,13802-1,Ruunaoja,59.41564609,24.84427134,1382,,Lasnamäe,,6586718.82,547938.24,Harju1,Tallinna TA
1383,13803-1,Raudbetooni,59.41585836,24.85865085,1383,,Lasnamäe,,6586752.83,548754.37,Harju1,Tallinna TA
1384,13804-1,Raudbetooni,59.41566871,24.86107663,1384,,Lasnamäe,,6586733.47,548892.37,Harju1,Tallinna TA
1385,13805-1,Sõjamäe,59.4161309,24.86524368,1385,,Lasnamäe,,6586788.00,549128.30,Harju1,Tallinna TA
1386,13901-1,Betooni põik,59.42401021,24.85646309,1386,,Lasnamäe,,6587659.32,548618.56,Harju1,Tallinna TA
1387,13902-1,Betooni põik,59.42380179,24.85648658,1387,,Lasnamäe,,6587636.12,548620.19,Harju1,Tallinna TA
1388,14001-1,Sõstramäe,59.42623771,24.86666217,1388,,Lasnamäe,,6587914.89,549194.29,Harju1,Tallinna TA
1389,14002-1,Sõstramäe,59.42629573,24.86748976,1389,,Lasnamäe,,6587921.96,549241.18,Harju1,Tallinna TA
1391,14004-1,Paneeli,59.42841685,24.86970214,1391,,Lasnamäe,,6588159.87,549363.69,Harju1,Tallinna TA
1392,14302-1,Pikamägi,59.43358526,24.86561818,1392,,Lasnamäe,,6588732.61,549124.47,Harju1,Tallinna TA
1393,14303-1,Pikamägi,59.43352986,24.86593432,1393,,Lasnamäe,,6588726.67,549142.49,Harju1,Tallinna TA
1395,14403-1,Pikri,59.43641933,24.84784284,1395,,Lasnamäe,,6589035.43,548111.77,Harju1,Tallinna TA
1396,14404-1,P. Pinna,59.43495123,24.838212,1396,,Lasnamäe,,6588865.02,547567.33,Harju1,Tallinna TA
1397,14406-1,Sõjamäe raba,59.43054107,24.83457379,1397,,Lasnamäe,,6588371.17,547366.99,Harju1,Tallinna TA
1398,14501-1,Gaasi,59.4305421,24.84805259,1398,,Lasnamäe,,6588380.88,548131.95,Harju1,Tallinna TA
1399,14502-1,Gaasi,59.43085603,24.84760631,1399,,Lasnamäe,,6588415.53,548106.18,Harju1,Tallinna TA
1400,14503-1,Betooni,59.42632298,24.85092201,1400,,Lasnamäe,,6587912.95,548300.76,Harju1,Tallinna TA
1401,14504-1,Betooni,59.42588445,24.85099213,1401,,Lasnamäe,,6587864.15,548305.36,Harju1,Tallinna TA
1402,14601-1,Vesse,59.42981547,24.83755426,1402,Vesse,Lasnamäe,,6588292.45,547537.15,Harju1,Tallinna TA
1403,14602-1,Vesse,59.42944773,24.83744887,1403,Vesse,Lasnamäe,,6588251.41,547531.68,Harju1,Tallinna TA
1404,14603-1,Sõjamäe raba,59.43051561,24.83395945,1404,,Lasnamäe,,6588367.90,547332.16,Harju1,Tallinna TA
1410,14705-1,Väike-Paala,59.42628984,24.80956236,1410,,Lasnamäe,,6587880.20,545953.23,Harju1,Tallinna TA
1411,14706-1,Väike-Paala,59.42646157,24.80805692,1411,,Lasnamäe,,6587898.30,545867.55,Harju1,Tallinna TA
1412,14707-1,Kiive,59.43010715,24.80734688,1412,,Lasnamäe,,6588303.92,545822.36,Harju1,Tallinna TA
1413,14708-1,Paala,59.43199368,24.81400422,1413,,Lasnamäe,,6588518.64,546197.64,Harju1,Tallinna TA
1414,14709-1,Punane,59.43231825,24.81972506,1414,,Lasnamäe,,6588558.75,546521.86,Harju1,Tallinna TA
1415,14710-1,Paekaare,59.43290516,24.82475719,1415,,Lasnamäe,,6588627.63,546806.63,Harju1,Tallinna TA
1416,14711-1,Jüriöö park,59.42713148,24.82017061,1416,,Lasnamäe,,6587981.27,546554.21,Harju1,Tallinna TA
1417,14712-1,Jüriöö park,59.42686023,24.82141676,1417,,Lasnamäe,,6587951.92,546625.31,Harju1,Tallinna TA
1419,14802-1,Majaka,59.42995877,24.786555,1419,,Lasnamäe,,6588273.37,544642.53,Harju1,Tallinna TA
1421,14804-1,Majaka,59.42990075,24.78631862,1421,,Lasnamäe,,6588266.75,544629.19,Harju1,Tallinna TA
1423,14806-1,Sikupilli,59.42805673,24.79187333,1423,,Lasnamäe,,6588065.04,544946.87,Harju1,Tallinna TA
1427,14904-1,Pae,59.42569932,24.79719472,1427,,Lasnamäe,,6587806.01,545252.02,Harju1,Tallinna TA
1428,14905-1,Pae,59.42620311,24.80102497,1428,,Lasnamäe,,6587864.72,545468.76,Harju1,Tallinna TA
1430,14907-1,Pae,59.42685802,24.80122443,1430,,Lasnamäe,,6587937.81,545479.21,Harju1,Tallinna TA
1431,14908-1,Väike-Paala,59.42638045,24.80720388,1431,,Lasnamäe,,6587888.68,545819.24,Harju1,Tallinna TA
1422,14805-1,Sikupilli,59.42811333,24.79211919,1422,,Lasnamäe,,6588071.51,544960.75,Harju1,Tallinna TA
1434,15102-1,Asunduse,59.43110864,24.79306048,1434,,Lasnamäe,,6588405.81,545010.23,Harju1,Tallinna TA
139822,5701101-1,Vormsi kai,58.90498549,23.42539364,139822,Rohuküla,Haapsalu linn,,6529674.00,466885.75,,Lääne MV
1437,15105-1,Kumu,59.43529957,24.798189,1437,,Lasnamäe,,6588876.12,545295.73,Harju1,Tallinna TA
1438,15106-1,Kumu,59.43473392,24.79913919,1438,,Lasnamäe,,6588813.75,545350.40,Harju1,Tallinna TA
1439,15107-1,Uuslinn,59.43804999,24.80200152,1439,,Lasnamäe,,6589185.09,545508.41,Harju1,Tallinna TA
1440,15108-1,Uuslinn,59.43812465,24.80250697,1440,,Lasnamäe,,6589193.75,545536.99,Harju1,Tallinna TA
1441,15109-1,Kiive,59.42984045,24.80633572,1441,,Lasnamäe,,6588273.52,545765.33,Harju1,Tallinna TA
1442,15110-1,Paala,59.43211179,24.81310837,1442,,Lasnamäe,,6588531.18,546146.64,Harju1,Tallinna TA
1444,15202-1,Paesilla,59.43870875,24.81713798,1444,,Lasnamäe,,6589268.84,546366.37,Harju1,Tallinna TA
1446,15301-1,Punane,59.43237727,24.81849282,1446,,Lasnamäe,,6588564.47,546451.85,Harju1,Tallinna TA
1447,15302-1,Paekaare,59.4334154,24.82701909,1447,,Lasnamäe,,6588686.05,546934.29,Harju1,Tallinna TA
92378,4900171-1,Kiigemetsa kool,58.72678208,26.33823773,92378,,Siimusti alevik,,6512043.50,635417.50,1,Jõgeva ÜTK
25897,8600386-1,Matsi,57.65910586,26.70081214,25897,,Rõuge vald,"Parmupalu suunas",6394011.97,661191.96,,Võru MV
1450,15305-1,Paesilla,59.43790688,24.81773987,1450,,Lasnamäe,,6589179.93,546401.61,Harju1,Tallinna TA
1451,15306-1,Paesilla,59.43785353,24.81894319,1451,,Lasnamäe,,6589174.82,546469.96,Harju1,Tallinna TA
1452,15307-1,Paesilla,59.43861231,24.81990093,1452,,Lasnamäe,,6589260.01,546523.27,Harju1,Tallinna TA
1453,15308-1,Kalevipoja,59.43582105,24.82900156,1453,,Lasnamäe,,6588955.42,547043.48,Harju1,Tallinna TA
25801,8600404-1,Missokülä,57.61875054,27.26991364,25801,,Rõuge vald,"Murati suunas",6391034.06,695351.98,,Võru MV
1455,15502-1,Vana-Kuuli,59.44321641,24.82953062,1455,,Lasnamäe,,6589779.61,547063.31,Harju1,Tallinna TA
1456,15601-1,Kotka kauplus,59.43951849,24.83268287,1456,,Lasnamäe,,6589369.89,547247.26,Harju1,Tallinna TA
1457,15602-1,Kalevipoja,59.4368311,24.82853684,1457,,Lasnamäe,,6589067.61,547015.72,Harju1,Tallinna TA
1458,15603-1,J. Smuuli tee,59.43486548,24.83045073,1458,,Lasnamäe,,6588849.99,547127.03,Harju1,Tallinna TA
1459,15604-1,P. Pinna,59.43550529,24.83672818,1459,,Lasnamäe,,6588925.69,547482.36,Harju1,Tallinna TA
1460,15605-1,P. Pinna,59.43465187,24.83473112,1460,,Lasnamäe,,6588829.21,547370.22,Harju1,Tallinna TA
1461,15701-1,Loitsu,59.44401153,24.83972429,1461,,Lasnamäe,,6589875.38,547640.51,Harju1,Tallinna TA
1462,15702-1,Laagna,59.44040417,24.843234,1462,,Lasnamäe,,6589476.03,547844.67,Harju1,Tallinna TA
1464,15704-1,Virbi,59.44285087,24.84713066,1464,,Lasnamäe,,6589751.37,548062.31,Harju1,Tallinna TA
1465,15801-1,Laagna,59.44002469,24.84479169,1465,,Lasnamäe,,6589434.87,547933.58,Harju1,Tallinna TA
1466,15802-1,Pikri,59.43634977,24.84595666,1466,,Lasnamäe,,6589026.33,548004.84,Harju1,Tallinna TA
1467,15803-1,Varraku,59.43820199,24.85131869,1467,,Lasnamäe,,6589236.51,548306.48,Harju1,Tallinna TA
1468,16001-1,Varraku,59.43878313,24.85123994,1468,,Lasnamäe,,6589301.19,548301.19,Harju1,Tallinna TA
1469,16002-1,Kuuli,59.43644357,24.8580558,1469,,Lasnamäe,,6589045.50,548691.25,Harju1,Tallinna TA
130562,43180-1,Korba,59.32399621,24.92470882,130562,,Rae vald,,6576570.00,552646.00,Harju2,Harjumaa ÜTK
1475,16104-1,Reinu,59.44639061,24.88585026,1475,,Lasnamäe,,6590174.06,550253.75,Harju1,Tallinna TA
24876,7820088-1,Kesklinn II,58.37724016,26.72790185,24876,,Tartu linn,"Kvartali ees",6473995.82,659555.94,TartuLinn,Tartu LV
1477,16202-1,Mahtra,59.43925277,24.87469669,1477,,Lasnamäe,,6589370.63,549631.42,Harju1,Tallinna TA
1478,16203-1,Mahtra,59.43945336,24.87617633,1478,,Lasnamäe,,6589394.07,549715.08,Harju1,Tallinna TA
1479,16204-1,Raadiku,59.44142615,24.87839933,1479,,Lasnamäe,,6589615.48,549838.33,Harju1,Tallinna TA
1480,16205-1,Raadiku,59.44146214,24.88033577,1480,,Lasnamäe,,6589620.93,549948.14,Harju1,Tallinna TA
21807,8200214-1,Krupi,57.96288436,26.49252424,21807,,Otepää vald,,6427342.00,647509.75,,Valga MV
1483,16303-1,Priisle,59.44751217,24.8913361,1483,,Lasnamäe,,6590303.12,550563.28,Harju1,Tallinna TA
138763,8200373-1,Säremaa tee,57.997805,26.481257,138763,,Otepää vald,,6431203.99,646699.41,,Valga MV
1484,16401-1,Ümera,59.44359612,24.89001077,1484,,Lasnamäe,,6589865.89,550493.89,Harju1,Tallinna TA
1485,16402-1,Ümera,59.44354096,24.8905882,1485,,Lasnamäe,,6589860.18,550526.73,Harju1,Tallinna TA
1486,16501-1,Priisle,59.44779318,24.89324088,1486,,Lasnamäe,,6590335.86,550670.91,Harju1,Tallinna TA
1490,16601-1,Seli,59.44491793,24.89661017,1490,,Lasnamäe,,6590018.12,550866.31,Harju1,Tallinna TA
1491,16602-1,Seli,59.44430471,24.89682076,1491,,Lasnamäe,,6589949.97,550879.17,Harju1,Tallinna TA
1493,16702-1,Tondi mägi,59.45441873,24.88429825,1493,,Lasnamäe,,6591067.20,550153.92,Harju1,Tallinna TA
1494,16703-1,Kelluka tee,59.45483361,24.87904587,1494,,Lasnamäe,,6591109.50,549855.43,Harju1,Tallinna TA
1497,16802-1,Priisle kauplus,59.4493169,24.88133053,1497,,Lasnamäe,,6590496.66,549993.08,Harju1,Tallinna TA
1498,16901-1,Läänemere tee,59.45043985,24.86073293,1498,,Lasnamäe,,6590606.58,548823.15,Harju1,Tallinna TA
1499,16902-1,Jussi,59.45407883,24.86180378,1499,,Lasnamäe,,6591012.73,548878.68,Harju1,Tallinna TA
1500,16903-1,Jussi,59.45411314,24.86271872,1500,,Lasnamäe,,6591017.22,548930.52,Harju1,Tallinna TA
25619,4400700-1,Smolnitsa,59.01161827,27.59869404,25619,,Alutaguse vald,"Vasknarva suunas",6546954.71,706656.90,,Ida-Viru MV
1504,17002-1,Kuristiku,59.44955868,24.86947977,1504,,Lasnamäe,,6590514.82,549320.54,Harju1,Tallinna TA
1505,17101-1,Katleri,59.4513636,24.84784166,1505,,Lasnamäe,,6590700.17,548090.66,Harju1,Tallinna TA
1506,17102-1,Katleri,59.45122639,24.84949239,1506,,Lasnamäe,,6590686.07,548184.48,Harju1,Tallinna TA
1508,17401-1,Loitsu,59.44433029,24.8391053,1508,,Lasnamäe,,6589910.45,547604.95,Harju1,Tallinna TA
1509,17501-1,Paevälja,59.44823322,24.8269056,1509,,Lasnamäe,,6590336.63,546907.50,Harju1,Tallinna TA
1510,17502-1,Paevälja,59.44844757,24.82882323,1510,,Lasnamäe,,6590361.85,547015.98,Harju1,Tallinna TA
1407,14702-1,Suur-Paala,59.42674313,24.81421338,1407,Ülemiste,Lasnamäe,,6587933.89,546216.61,Harju1,Tallinna TA
1514,17802-1,Lasnamägi,59.44500826,24.81563591,1514,,Lasnamäe,,6589969.55,546272.61,Harju1,Tallinna TA
1515,17901-1,Lillepi,59.46066198,24.81760785,1515,,Pirita,,6591714.70,546363.22,Harju1,Tallinna TA
1516,17902-1,Lillepi,59.46075498,24.81994946,1516,,Pirita,,6591726.68,546495.87,Harju1,Tallinna TA
1517,17903-1,Saare,59.45864636,24.82025998,1517,,Pirita,,6591492.00,546516.35,Harju1,Tallinna TA
1518,17904-1,Tamme,59.45778196,24.82515123,1518,,Pirita,,6591399.11,546794.90,Harju1,Tallinna TA
1519,17905-1,Urva,59.45840307,24.83097983,1519,,Pirita,,6591472.38,547124.57,Harju1,Tallinna TA
1520,17906-1,Sarapuu,59.45898555,24.83515867,1520,,Pirita,,6591540.21,547360.73,Harju1,Tallinna TA
1521,17907-1,Rummu,59.46359721,24.8270758,1521,,Pirita,,6592048.26,546896.05,Harju1,Tallinna TA
1522,17908-1,Rummu,59.46429749,24.82936096,1522,,Pirita,,6592127.87,547024.65,Harju1,Tallinna TA
1524,18101-1,Saare,59.45850854,24.8199754,1524,,Pirita,,6591476.45,546500.40,Harju1,Tallinna TA
1525,18102-1,Tamme,59.45780031,24.82392609,1525,,Pirita,,6591400.30,546725.40,Harju1,Tallinna TA
1526,18103-1,Urva,59.45813905,24.82985609,1526,,Pirita,,6591442.18,547061.21,Harju1,Tallinna TA
31743,8600414-1,Mustja,57.90431857,26.83370033,31743,,Võru vald,"Tartu suunas",6421626.48,667965.04,,Võru MV
1528,18202-1,Haljas tee,59.45908852,24.8461878,1528,,Pirita,,6591559.52,547986.00,Harju1,Tallinna TA
1529,18203-1,Lükati tee,59.45871154,24.85080848,1529,,Pirita,,6591520.84,548248.55,Harju1,Tallinna TA
21496,4400214-1,Jõhvi kalmistu,59.365549,27.39711334,21496,,Jõhvi vald,"Kohtla-Järve suunas",6585726.83,693095.33,,Ida-Viru MV
1531,18205-1,Kose,59.4580048,24.8610603,1531,,Pirita,,6591449.53,548830.90,Harju1,Tallinna TA
1532,18301-1,Kose,59.45802154,24.86241346,1532,,Pirita,,6591452.38,548907.61,Harju1,Tallinna TA
26227,7820140-1,Maarjamõisa,58.36960163,26.7017286,26227,,Tartu linn,"Kesklinna suunas",6473083.78,658060.14,TartuLinn,Tartu LV
1534,18303-1,Metsakooli tee,59.46192903,24.87480272,1534,,Pirita,,6591896.76,549604.49,Harju1,Tallinna TA
1535,18304-1,Helmiku tee,59.45692927,24.88021734,1535,,Pirita,,6591343.82,549918.81,Harju1,Tallinna TA
1537,18502-1,Pirita,59.46724242,24.83391533,1537,,Pirita,,6592459.13,547278.79,Harju1,Tallinna TA
147895,4401053-1,Matka,59.39131918,27.02257845,147895,,Lüganuse vald,"Purtse suunas",6587576.00,671692.37,ViruVälis,Ida-Viru MV
1539,18504-1,Kalmuse tee,59.46845968,24.83869723,1539,,Pirita,,6592598.11,547548.19,Harju1,Tallinna TA
26000,8600416-1,Mustjärve,57.8466704,27.02894016,26000,,Võru vald,"Nöörimaa suunas",6415717.98,679819.93,,Võru MV
1541,18506-1,Supluse puiestee,59.47116276,24.8358174,1541,,Pirita,,6592897.19,547381.18,Harju1,Tallinna TA
1543,18508-1,Randvere tee,59.47459394,24.83816802,1543,,Pirita,,6593281.08,547509.65,Harju1,Tallinna TA
1544,18509-1,Randvere tee,59.47404499,24.83860831,1544,,Pirita,,6593220.24,547535.37,Harju1,Tallinna TA
1545,18510-1,Mähe tee,59.48037316,24.84016352,1545,,Pirita,,6593926.29,547614.69,Harju1,Tallinna TA
1546,18601-1,Metsakalmistu,59.46827667,24.86723863,1546,,Pirita,,6592598.30,549166.46,Harju1,Tallinna TA
1547,18602-1,Metsakalmistu,59.46790429,24.86609547,1547,,Pirita,,6592555.98,549102.19,Harju1,Tallinna TA
1548,18603-1,Kloostrimetsa,59.47134613,24.87684722,1548,,Pirita,,6592947.31,549706.70,Harju1,Tallinna TA
1549,18604-1,Kloostrimetsa,59.47131223,24.8777323,1549,,Pirita,,6592944.19,549756.92,Harju1,Tallinna TA
1550,18605-1,Teletorn,59.47254134,24.88412599,1550,,Pirita,,6593085.87,550117.54,Harju1,Tallinna TA
1551,18606-1,Teletorn,59.47260398,24.88522654,1551,,Pirita,,6593093.67,550179.83,Harju1,Tallinna TA
1552,18607-1,Liilia tee,59.48606948,24.88223674,1552,,Pirita,,6594591.46,549990.63,Harju2,Tallinna TA
1553,18608-1,Liilia tee,59.48628969,24.88230226,1553,,Pirita,,6594616.04,549994.02,Harju2,Tallinna TA
1554,18609-1,Äigrumäe,59.48044374,24.89086619,1554,,Pirita,,6593971.23,550487.90,Harju2,Tallinna TA
1556,18611-1,Pärnamäe tee,59.47453474,24.89639691,1556,,Pirita,,6593317.16,550810.12,Harju2,Tallinna TA
1557,18612-1,Pärnamäe tee,59.47296799,24.89849436,1557,,Pirita,,6593144.22,550931.34,Harju2,Tallinna TA
1558,18613-1,Pärnamäe tee,59.47482647,24.89639892,1558,,Pirita,,6593349.66,550809.80,Harju2,Tallinna TA
150768,00164-1,Toome puiestee,59.36523037,24.62415933,150768,,Nõmme,,6580965.78,535492.83,,Tallinna TA
1561,18616-1,Laiaküla,59.46911214,24.902828,1561,,Pirita,,6592717.99,551182.76,Harju2,Tallinna TA
1562,18617-1,Ristaia,59.46913892,24.90840289,1562,,Pirita,,6592725.24,551498.75,Harju2,Tallinna TA
1563,18618-1,Ristaia,59.46989894,24.90923248,1563,,Pirita,,6592810.54,551544.63,Harju2,Tallinna TA
1564,18619-1,Käära,59.47287163,24.91191286,1564,,Pirita,,6593143.75,551692.07,Harju2,Tallinna TA
127079,24507-1,Ellandvahe,59.45959568,25.14394788,127079,,Jõelähtme vald,,6591866.50,564869.12,Harju3,Harjumaa ÜTK
1568,18803-1,Tuule tee,59.49211395,24.82921631,1568,,Pirita,,6595226.48,546978.14,Harju1,Tallinna TA
1569,18807-1,Tuule tee,59.49271599,24.82890614,1569,,Pirita,,6595293.33,546959.74,Harju1,Tallinna TA
1571,18806-1,Merivälja,59.49715613,24.82876601,1571,,Pirita,,6595787.86,546945.69,Harju1,Tallinna TA
1575,18904-1,Mähe,59.48007454,24.8543376,1575,,Pirita,,6593903.17,548418.36,Harju1,Tallinna TA
1576,18905-1,Mähe,59.48029167,24.8550734,1576,,Pirita,,6593927.89,548459.75,Harju1,Tallinna TA
1578,18907-1,Küüvitsa tee,59.48372612,24.86020603,1578,,Pirita,,6594314.20,548745.71,Harju1,Tallinna TA
1579,19001-1,Oblika tee,59.48699928,24.86524987,1579,,Pirita,,6594682.50,549026.81,Harju1,Tallinna TA
1580,19002-1,Oblika tee,59.48709718,24.8653921,1580,,Pirita,,6594693.51,549034.73,Harju1,Tallinna TA
1581,19003-1,Aianduse tee,59.48838645,24.8707354,1581,,Pirita,,6594841.05,549335.61,Harju1,Tallinna TA
1582,19004-1,Aianduse tee,59.4884468,24.87149307,1582,,Pirita,,6594848.33,549378.45,Harju1,Tallinna TA
1584,19006-1,Mähe aedlinn,59.49099525,24.8812166,1584,,Pirita,,6595139.42,549925.62,Harju1,Tallinna TA
1585,19007-1,Mähe aedlinn,59.49072064,24.87883698,1585,,Pirita,,6595107.06,549791.21,Harju1,Tallinna TA
150345,4401081-1,Pansionaadi,59.43075954,27.16348486,150345,,Lüganuse vald,"E20 suunas",6592334.00,679483.37,,Ida-Viru MV
1617,16507-1,Iru,59.46088285,24.90638874,1617,,Viimsi vald,,6591804.00,551397.00,Harju2,Harjumaa ÜTK
1618,20816-1,Rahnu,59.35136694,24.62143105,1618,,Saue vald,,6579420.00,535352.00,Harju2,Harjumaa ÜTK
1620,20818-1,Laagri alevik,59.35162569,24.61199283,1620,Laagri,Saue vald,,6579443.88,534814.83,Harju2,Harjumaa ÜTK
1621,20820-1,Rahnu,59.35123122,24.62355013,1621,,Saue vald,,6579406.00,535472.68,Harju2,Harjumaa ÜTK
863,02111-1,Sipelga,59.4069832,24.69346888,863,,Mustamäe,,6585655.64,539385.90,Harju1,Tallinna TA
1629,21204-1,Estonia,59.43352199,24.75194759,1629,Tallinn; Estonia,Kesklinn,,6588647.78,542673.95,Harju1,Tallinna TA
1630,21205-1,Estonia,59.43389528,24.75176831,1630,Estonia,Kesklinn,,6588689.25,542663.31,Harju1,Tallinna TA
1631,21206-1,Kaubamaja,59.43438693,24.75575323,1631,,Kesklinn,,6588746.56,542888.83,Harju1,Tallinna TA
1632,21206-2,Kaubamaja,59.43500909,24.75564822,1632,,Kesklinn,,6588815.80,542882.09,Harju1,Tallinna TA
1634,21207-1,Viru,59.43576392,24.75094574,1634,Tallinn,Kesklinn,,6588896.89,542614.30,Harju1,Tallinna TA
5435,28702-1,Kiiu,59.45182704,25.38338812,5435,,Kuusalu vald,,6591257.00,578463.00,Harju4,Harjumaa ÜTK
25011,5700294-1,Peduste,59.06895,24.00355,25011,,Lääne-Nigula vald,,6547796.03,500203.62,,Lääne MV
10923,26701-1,Haapse,59.50062454,25.30658282,10923,,Jõelähtme vald,,6596605.00,574001.43,Harju3,Harjumaa ÜTK
150586,5701102-1,Rohuküla,58.90847273,23.42929324,150586,Rohuküla,Haapsalu linn,,6530060.50,467113.78,,Lääne MV
1772,10905-1,A. Adamsoni,59.43304416,24.73435584,1772,,Kesklinn,,6588583.49,541676.22,Harju1,Tallinna TA
1773,12405-1,Tõnismägi,59.43213022,24.73628682,1773,,Kesklinn,,6588482.88,541786.92,Harju1,Tallinna TA
136176,6500958-1,Laeva,58.02114271,26.91078388,136176,,Kanepi vald,"Ihamaru suunas",6434821.50,671966.81,,Põlva MV
138366,28105-1,Jõe,59.44813904,25.27138739,138366,,Kuusalu vald,,6590720.50,572119.12,Harju3,Harjumaa ÜTK
876,02604-1,Retke tee,59.40295541,24.70772275,876,,Kristiine,,6585215.41,540200.16,Harju1,Tallinna TA
1095,07702-1,Vilja,59.41263623,24.70883717,1095,,Kristiine,,6586294.50,540252.06,Harju1,Tallinna TA
965,04704-1,Pidu,59.3833043,24.66445574,965,,Nõmme,,6583001.18,537764.27,Harju1,Tallinna TA
28422,7800147-1,Johansoni,58.52628697,27.05143228,28422,,Peipsiääre vald,"Kallaste suunas",6491394.50,677712.06,,Tartu MV
1221,10501-1,Põhja puiestee,59.44370354,24.7440654,1221,,Põhja-Tallinn,,6589777.00,542214.06,Harju1,Tallinna TA
152318,3700339-1,Tuuletorni,58.83052734,22.77227682,152318,,Käina alevik,"Käinasse sisenev suund",6521887.45,429098.28,,Hiiu MV
24966,5900198-1,Karaski,59.00270635,26.42984371,24966,,Väike-Maarja vald,,6542946.00,639607.43,Viru2C,Lääne-Viru MV
22658,3700174-1,Tuuliku,58.83411902,22.46932063,22658,,Emmaste vald,"Nurste-Emmaste suund",6522647.14,411614.25,,Hiiu MV
141648,6703077-1,Meelva,58.71311094,23.67112847,141648,,Lääneranna vald,,6508207.00,480942.37,,Pärnu MV
138678,6701261-1,Ritsu,58.49070367,24.94198244,138678,,Tori vald,,6483774.10,554932.80,,Pärnu MV
133008,6500967-1,Aksi,58.17860995,26.79617201,133008,,Kanepi vald,"Prangli suunas",6452056.50,664468.75,,Põlva MV
14610,23697-1,Randvere kauplus,59.49969249,24.90377426,14610,,Viimsi vald,,6596125.27,551190.50,Harju2,Harjumaa ÜTK
138367,10803-1,Salme,59.44193354,24.7290989,138367,,Põhja-Tallinn,,6589570.50,541367.12,Harju1,Tallinna TA
148844,4401074-1,Auvere elektrijaam,59.27019339,27.89793403,148844,,Narva-Jõesuu linn,,6576670.00,722149.43,,Ida-Viru MV
4644,21539-1,Suurupi tee,59.45274635,24.40606386,4644,,Harku vald,,6590620.00,523032.00,Harju2,Harjumaa ÜTK
138368,10804-1,Salme,59.442093,24.72867157,138368,,Põhja-Tallinn,,6589588.00,541342.68,Harju1,Tallinna TA
1351,13007-1,Filtri tee,59.42071064,24.7716085,1351,,Kesklinn,,6587233.30,543806.10,Harju1,Tallinna TA
956,04601-1,Rohula,59.36566906,24.62951101,956,,Nõmme,"Kadaka puiesteel Õismäe suunas",6581017.50,535796.68,Harju1,Tallinna TA
10280,23661-1,Karulaugu,59.5128816,24.83563604,10280,,Viimsi vald,,6597544.50,547313.00,Harju2,Harjumaa ÜTK
140142,5901138-1,Koila,59.46396019,26.71949485,140142,,Viru-Nigula vald,,6594925.00,654158.18,Viru2B,Lääne-Viru MV
138703,23708-1,Suureniidu,59.5430368,24.7967863,138703,,Viimsi vald,,6600877.06,545073.56,Harju2,Harjumaa ÜTK
141401,7400608-1,Viira,58.29876299,22.39944011,141401,,Kaarma vald,,6463130.00,406157.21,,Saare MV
138764,8200641-1,Nõgla,57.991072,26.526047,138764,,Otepää vald,,6430553.46,649374.52,,Valga MV
119759,8600507-1,Postimaja,57.84858555,27.01039182,119759,,Võru linn,,6415881.50,678709.93,,Võru MV
26126,7820295-1,Vaksali,58.37684819,26.70266721,26126,,Tartu linn,"Näituse tn. suunas",6473892.45,658082.52,TartuLinn,Tartu LV
20089,6700299-1,Kirsi,58.40584098,24.50821994,20089,,Pärnu linn,"Tallinna mnt suunas",6474049.02,529709.74,"PärnuLinn,PärnuMVLL",Pärnu MV
138992,5100668-1,Jalalõpe II,59.06638,25.88397,138992,,Järva vald,,6549027.29,608054.35,,Järvamaa ÜTK
138623,6501007-1,Liiva,58.14594318,27.40498138,138623,,Räpina vald,,6450078.00,700435.06,,Põlva MV
138767,8200782-1,Ristmiku,58.02789742,26.34681261,138767,,Otepää vald,,6434267.50,638636.75,,Valga MV
24554,8600429-1,Mööbli,57.82786141,26.55040161,24554,,Antsla vald,"Antsla kesklinna suunas",6412442.99,651505.01,,Võru MV
138765,8200642-1,Virro,57.963725,26.494585,138765,,Otepää vald,,6427440.09,647628.16,,Valga MV
119460,7800153-1,Juuristiku,58.31333603,26.65185545,119460,,Kambja vald,"Külitse suunas",6466705.50,655391.62,,Tartu MV
32287,4420050-1,Kangelaste maja,59.38203161,28.18011872,32287,,Narva linn,,6590073.00,737435.56,,Narva LV
139007,02001-1,Kotermaa,59.40460835,24.61551189,139007,,Haabersti,,6585347.88,534960.85,Harju1,Tallinna TA
21228,8600437-1,Nogopalu,57.73614469,26.9452992,21228,,Rõuge vald,"Rõuge suunas",6403198.43,675397.99,,Võru MV
32124,4400083-1,Auvere jaam,59.35810579,27.92758749,32124,,Narva-Jõesuu linn,"Tallinna mnt suunas",6586545.25,723264.40,,Ida-Viru MV
1408,14703-1,Suur-Paala,59.42678046,24.81466512,1408,Ülemiste,Lasnamäe,,6587938.36,546242.20,Harju1,Tallinna TA
1470,16003-1,Osmussaare,59.43553783,24.86399435,1470,,Lasnamäe,,6588948.93,549029.52,Harju1,Tallinna TA
139009,01905-1,Jalami,59.40494,24.627222,139009,,Haabersti,,6585390.98,535625.61,Harju1,Tallinna TA
24959,5900266-1,Kooli,59.500425,26.515147,24959,,Viru-Nigula vald,,6598532.58,642427.81,Viru2B,Lääne-Viru MV
24497,8400147-1,Kaavere tee,58.52587079,25.95322241,24497,,Viljandi vald,"Tartu mnt suunas",6488961.94,613778.04,,Viljandi MV
148415,5100682-1,Mündi töökoda,58.87139,25.59897,148415,,Paide linn,,6526889.40,592229.36,,Järvamaa ÜTK
21941,8200673-1,Tõutsi,57.96000169,26.47763119,21941,,Otepää vald,,6426988.50,646640.62,,Valga MV
138766,8200778-1,Kotre tee,57.979047,26.466505,138766,,Otepää vald,,6429084.02,645904.42,,Valga MV
153832,4990500-1,Kursi kalmistu,58.59413338,26.33535665,153832,,Puurmani vald,,6497272.00,635765.00,,Jõgeva ÜTK
140992,5901161-1,Simunamäe,59.51203377,26.58897546,140992,,Viru-Nigula vald,,6599984.00,646556.62,Viru2B,Lääne-Viru MV
152656,"",Kuuse (Õpilasliin),58.33909153,22.19649644,152656,,Kärla vald,,6467922.00,394381.84,,
14338,23619-1,Vainu,59.51663873,24.84754035,14338,,Viimsi vald,,6597971.50,547981.68,Harju2,Harjumaa ÜTK
143832,8490173-1,Sulevi,58.243642,25.855097,143832,,Viljandi vald,"Mustla suunas",6457377.51,608932.82,,Viljandi MV
156120,8490252-1,Gümnaasium,58.12554145,25.36332281,156120,,Abja-Paluoja linn,,6443533.71,580327.46,,Viljandi MV
151664,8600938-1,Metsatuka,57.73507478,27.28778807,151664,,Võru vald,"Kooli poolsel küljel",6404027.00,695784.18,,Võru MV
31424,6500666-1,Taevaskoja tee,58.09412992,27.00748985,31424,,Põlva vald,"Tartu suunas",6443194.50,677312.00,,Põlva MV
5434,28701-1,Kiiu,59.45192511,25.38259858,5434,,Kuusalu vald,,6591267.00,578418.00,Harju4,Harjumaa ÜTK
1418,14801-1,Majaka,59.42997175,24.78653011,1418,,Lasnamäe,,6588274.80,544641.10,Harju1,Tallinna TA
1223,10503-1,Linnahall,59.44347103,24.75011292,1223,,Kesklinn,,6589754.92,542557.44,Harju1,Tallinna TA
1012,05905-1,Kraavi,59.37572149,24.71578992,1012,,Nõmme,,6582186.50,540690.75,Harju1,Tallinna TA
1013,05906-1,Astri,59.37771073,24.70650742,1013,,Nõmme,,6582402.50,540160.75,Harju1,Tallinna TA
1020,06108-1,Kraavi,59.37625835,24.71281052,1020,,Nõmme,,6582244.50,540520.75,Harju1,Tallinna TA
130629,5701033-1,Virtsu kool,58.58012891,23.53450174,130629,,Lääneranna vald,,6493442.50,472922.37,,Pärnu MV
21937,8200658-1,Kaarna,58.06246547,26.51456646,21937,,Otepää vald,,6438474.00,648397.93,,Valga MV
151617,4400983-1,Pärna,59.40353663,27.28328329,151617,,Järve linnaosa,,6589631.50,686423.31,,Kohtla-Järve LV
1021,06109-1,Astri,59.37792379,24.70528032,1021,,Nõmme,,6582425.50,540090.75,Harju1,Tallinna TA
32483,4400139-1,Haigla,59.390867,27.748043,32483,,Sillamäe linn,"Tallinna suunas",6589605.27,712865.21,,Ida-Viru MV
1158,09107-1,Maleva,59.45513381,24.68907057,1158,,Põhja-Tallinn,,6591017.00,539081.00,Harju1,Tallinna TA
1420,14803-1,Majaka,59.42989208,24.78634327,1420,,Lasnamäe,,6588265.80,544630.60,Harju1,Tallinna TA
28754,8600448-1,Kurgjärve,57.7255058,27.02655247,28754,,Rõuge vald,"Haanja suunas",6402230.07,680286.98,,Võru MV
1185,09804-1,Sitsi,59.45306312,24.70464252,1185,,Põhja-Tallinn,,6590795.50,539966.56,Harju1,Tallinna TA
4320,14810-1,Sikupilli,59.42812418,24.79209213,4320,,Lasnamäe,,6588072.70,544959.20,Harju1,Tallinna TA
22263,7800607-1,Nõela tee,58.46933614,26.59001487,22263,,Tartu vald,"Kärevere suunas",6483925.99,651099.03,,Tartu MV
133436,00129-1,Kakumäe tee,59.44268609,24.5952773,133436,,Haabersti,,6589579.37,533773.92,Harju1,Tallinna TA
133447,00140-1,Mõisa,59.42747058,24.65501362,133447,,Haabersti,,6587915.96,537179.59,Harju1,Tallinna TA
1156,09105-1,Sirbi,59.45527055,24.68089853,1156,,Põhja-Tallinn,,6591027.50,538617.38,Harju1,Tallinna TA
131561,09909-1,Volta,59.44462785,24.72219944,131561,,Põhja-Tallinn,,6589866.40,540972.45,Harju1,Tallinna TA
153060,8490242-1,Pihlaka,58.42626019,26.03066207,153060,,Viljandi vald,,6478006.44,618623.48,,Viljandi MV
1424,14901-1,Majaka põik,59.42656417,24.79661518,1424,,Lasnamäe,,6587901.96,545217.98,Harju1,Tallinna TA
1425,14902-1,Majaka põik,59.42650695,24.79639767,1425,,Lasnamäe,,6587895.44,545205.71,Harju1,Tallinna TA
32129,4400456-1,Mustanina,59.35026017,27.74012335,32129,,Narva-Jõesuu linn,"Sillamäe suunas",6585063.50,712668.00,,Ida-Viru MV
131567,09911-1,Volta,59.4441806,24.72241401,131567,,Põhja-Tallinn,,6589816.71,540985.16,Harju1,Tallinna TA
131570,09913-1,Sitsi,59.45292817,24.70456123,131570,,Põhja-Tallinn,,6590780.41,539962.10,Harju1,Tallinna TA
131568,10015-1,Telliskivi,59.44168244,24.73194122,131568,,Põhja-Tallinn,,6589544.28,541528.68,Harju1,Tallinna TA
3891,21212-1,Viru keskus 2,59.43594756,24.75667409,3891,Viru keskus,Kesklinn,,6588921.00,542939.12,Harju1,Tallinna TA
3892,21213-1,Viru keskus 3,59.43605217,24.75643519,3892,Viru keskus,Kesklinn,,6588932.50,542925.43,Harju1,Tallinna TA
3894,21215-1,Viru keskus 5,59.43646815,24.75668562,3894,Tallinn; Viru keskus,Kesklinn,,6588979.00,542939.12,Harju1,Tallinna TA
3895,21216-1,Viru keskus 6,59.4366703,24.75665485,3895,Viru keskus,Kesklinn,,6589001.50,542937.12,Harju1,Tallinna TA
26762,7000388-1,Orgita,58.918656,24.448974,26762,Märjamaa,Märjamaa vald,,6531141.44,525864.05,Rapla3,Rapla MV
128832,29312-1,Kahala küla,59.47077192,25.52913836,128832,,Kuusalu vald,,6593546.50,586680.18,Harju4,Harjumaa ÜTK
135202,6500932-1,Tõrvahavva,58.04990527,27.18642916,135202,,Põlva vald,"Holvandi suunas",6438761.50,688087.87,,Põlva MV
88144,8200659-1,Kaarna,58.06238045,26.51477553,88144,,Otepää vald,,6438465.00,648410.62,,Valga MV
23166,5100096-1,Kagavere,59.04193,25.81385,23166,,Järva vald,,6546193.92,604107.28,,Järvamaa ÜTK
149299,8600929-1,Lalli,57.72736857,26.67190872,149299,,Antsla vald,"Pulsti suunas",6401540.00,659165.06,,Võru MV
136899,7801284-1,Tabuli,58.29625677,26.44780932,136899,,Nõo vald,,6464350.00,643510.00,,Tartu MV
2862,20805-1,Metsakasti,59.49416609,24.89369673,2862,,Viimsi vald,,6595502.00,550627.93,Harju2,Harjumaa ÜTK
2863,20804-1,Metsakasti,59.49409796,24.8938152,2863,,Viimsi vald,,6595494.50,550634.75,Harju2,Harjumaa ÜTK
2865,20806-1,Hansunõmme,59.49789994,24.90168757,2865,,Viimsi vald,,6595923.99,551074.99,Harju2,Harjumaa ÜTK
2866,20809-1,Aiaotsa,59.49646941,24.91129905,2866,,Viimsi vald,,6595772.00,551621.56,Harju2,Harjumaa ÜTK
2867,20808-1,Aiaotsa,59.49683953,24.91099888,2867,,Viimsi vald,,6595813.00,551604.00,Harju2,Harjumaa ÜTK
2868,20811-1,Vesiniidu,59.49079949,24.91533652,2868,,Viimsi vald,,6595143.50,551858.87,Harju2,Harjumaa ÜTK
2869,20810-1,Vesiniidu,59.4907,24.91596,2869,,Viimsi vald,,6595132.89,551894.34,Harju2,Harjumaa ÜTK
2870,20812-1,Muuga,59.48745515,24.92760504,2870,,Viimsi vald,,6594780.50,552559.06,Harju2,Harjumaa ÜTK
2871,19902-1,Muuga aedlinn,59.47699169,24.92068186,2871,,Maardu linn,,6593609.50,552182.81,Harju2,Harjumaa ÜTK
2872,19901-1,Muuga aedlinn,59.47677911,24.91898447,2872,,Maardu linn,,6593584.50,552086.93,Harju2,Harjumaa ÜTK
2873,19903-1,Kirsipuu puiestee,59.47399619,24.93114603,2873,,Maardu linn,,6593284.00,552780.50,Harju2,Harjumaa ÜTK
127575,5701010-1,Kersleti,59.02899768,23.16660256,127575,,Vormsi vald,,6543643.00,452144.03,,Lääne MV
2875,20002-1,Õunapuu puiestee,59.47495333,24.95111153,2875,,Maardu linn,,6593406.50,553910.62,Harju2,Harjumaa ÜTK
2876,20101-1,Kabelikivi,59.48068599,24.94412449,2876,,Maardu linn,,6594039.50,553505.62,Harju2,Harjumaa ÜTK
2877,20102-1,Kardheina tee,59.4814223,24.932745,2877,,Maardu linn,,6594112.50,552859.62,Harju2,Harjumaa ÜTK
2878,19904-1,Pirnipuu puiestee,59.47919359,24.92416673,2878,,Maardu linn,,6593857.50,552376.93,Harju2,Harjumaa ÜTK
148949,8600924-1,Karamsina,57.81042189,27.46007423,148949,,Setomaa vald,"Obinitsa suunas",6412924.00,705602.06,,Võru MV
10300,23665-1,Lubjamäe,59.51363409,24.85063288,10300,,Viimsi vald,,6597638.99,548160.99,Harju2,Harjumaa ÜTK
152396,6790064-1,Alaküla,58.687938,23.79969099,152396,,Lääneranna vald,,6505373.80,488383.98,,Pärnu MV
2940,19102-1,Vasar,59.46063767,24.92518901,2940,,Maardu linn,,6591791.24,552463.38,Harju2,Harjumaa ÜTK
2944,19301-1,Pähklimäe,59.45649,24.94531,2944,,Maardu linn,"Ametlik nimi: Pähklamäe",6591345.12,553610.79,Harju2,Harjumaa ÜTK
2945,19403-1,Koplimäe,59.45435679,24.95761156,2945,,Maardu linn,,6591117.38,554311.78,Harju2,Harjumaa ÜTK
2946,19402-1,Koplimäe,59.4549,24.95512,2946,,Maardu linn,,6591175.88,554169.62,Harju2,Harjumaa ÜTK
2947,19401-1,Kärmu,59.45310811,24.96638774,2947,,Maardu linn,,6590985.43,554811.50,Harju2,Harjumaa ÜTK
31945,7801001-1,Tülba,58.46270585,26.63617849,31945,,Tartu vald,"Muuge tee peatuse suunas",6483293.00,653819.81,,Tartu MV
3098,50020-3,Kaubamaja,59.43550794,24.75506841,3098,,Kesklinn,,6588871.00,542848.56,Harju1,Tallinna TA
3099,18623-1,Äigrumäe,59.48137596,24.89083159,3099,,Pirita,,6594075.05,550484.56,Harju1,Tallinna TA
152779,8600943-1,Härma,57.7955523,27.38955538,152779,,Setomaa vald,,6411056.00,701499.00,,Võru MV
145991,16009-1,Taevapuna,59.43863313,24.85963582,145991,,Lasnamäe,,6589290.55,548777.77,Harju1,Tallinna TA
22316,5100337-0,Paide bussijaam,58.88459582,25.5555028,22316,"Paide, Paide Bussijaam",Paide linn,,6528301.00,589688.50,tartu1,Järvamaa ÜTK
138777,8200779-1,Tuisu,58.026517,26.528378,138777,,Otepää vald,,6434503.63,649363.52,,Valga MV
155394,8600960-1,Raudsepa,57.79821607,27.0086874,155394,,Võru vald,,6410272.50,678860.37,,Võru MV
155058,09707-1,Rannapargi,59.44184063,24.68718051,155058,,Põhja-Tallinn,,6589535.04,538988.97,Harju1,Tallinna TA
137646,7000701-1,Keskuse,59.1275854,24.61308382,137646,,Kohila vald,,6554488.00,535105.00,Rapla2,Rapla MV
127560,5701007-1,Suuremõisa,58.99187971,23.18968431,127560,,Vormsi vald,,6539492.50,453419.43,,Lääne MV
21026,7400025-1,Arhiivi,58.24994483,22.50754655,21026,,Saaremaa vald,"Marientali suunas",6457547.96,412373.58,,Saare MV
3390,00121-1,Printsu tee,59.42983607,24.61296863,3390,,Haabersti,,6588156.92,534790.72,Harju1,Tallinna TA
3394,14807-1,Peterburi tee,59.4252374,24.78516746,3394,,Lasnamäe,,6587746.50,544569.93,Harju1,Tallinna TA
14569,22063-1,Maksima,59.30988038,24.83270859,14569,,Kiili vald,,6574929.00,547428.00,Harju2,Harjumaa ÜTK
3399,01802-1,Kadaka,59.40365985,24.65452538,3399,,Mustamäe,,6585263.20,537177.77,Harju1,Tallinna TA
138780,8200780-1,Mäe tee,58.065185,26.384433,138780,,Otepää vald,,6438496.24,640710.62,,Valga MV
139059,499050-1,Eristvere,58.72993143,26.38212714,139059,,Jõgeva vald,,6512483.50,637945.81,,Jõgeva ÜTK
138781,8200781-1,Pursa,58.04539529,26.39701834,138781,,Otepää vald,,6436320.00,641531.75,,Valga MV
153289,8490243-1,Raestiku,58.51342022,25.66065309,153289,,Põhja-Sakala vald,"Tääksi suunas",6487116.52,596773.57,,Viljandi MV
155393,8600959-1,Raudsepa,57.79782167,27.00939383,155393,,Võru vald,,6410230.50,678904.31,,Võru MV
156515,23830-1,Kungla tee,59.34181287,24.64979029,156515,,Saku vald,,6578371.00,536975.56,Harju2,Harjumaa ÜTK
134201,5701053-1,Hullo,58.99175,23.24323639,134201,,Vormsi vald,,6539442.09,456497.55,,Lääne MV
31990,5700242-1,Kiltsi tee,58.93063165,23.52699505,31990,,Haapsalu linn,,6532484.86,472761.02,,Lääne MV
12120,16008-1,Taevakivi,59.44241797,24.86510169,12120,,Lasnamäe,,6589716.16,549082.47,Harju1,Tallinna TA
4687,21562-1,Vaila tee,59.41575006,24.41612093,4687,,Harku vald,"",6586502.00,523628.00,Harju2,Harjumaa ÜTK
127993,10505-1,Põhja puiestee,59.44372407,24.74123671,127993,,Põhja-Tallinn,,6589777.51,542053.56,Harju1,Tallinna TA
26855,7820013-1,Annelinna gümnaasium,58.37551082,26.76968164,26855,,Tartu linn,"Kalda tee suunas",6473903.51,662006.22,TartuLinn,Tartu LV
23320,7800381-1,Kärkna,58.46066625,26.6516101,23320,,Tartu vald,"Kärevere, Sojamaa suunas",6483101.50,654728.75,,Tartu MV
1488,16503-1,Iru hooldekodu,59.45294435,24.90528709,1488,,Lasnamäe,,6590918.84,551346.47,Harju1,Tallinna TA
24475,4400696-1,Sinimäe kool,59.37495754,27.87461426,24475,Sinimäe,Narva-Jõesuu linn,,6588244.31,720148.12,,Ida-Viru MV
29647,6500189-1,Kooli,58.05280239,27.04932166,29647,,Põlva vald,"Põlva keskuse suunas",6438707.65,679985.76,,Põlva MV
3603,21209-1,A. Laikmaa,59.43591143,24.75725915,3603,,Kesklinn,,6588917.35,542972.37,Harju1,Tallinna TA
3604,12223-1,Hobujaama,59.43725839,24.75833415,3604,,Kesklinn,,6589068.08,543031.67,Harju1,Tallinna TA
136869,7801280-1,Alatskivi kool,58.59945901,27.13501928,136869,Alatskivi,Peipsiääre vald,"Alatskivi suunas",6499760.00,682195.81,,Tartu MV
3610,21220-1,Kaubamaja,59.43477062,24.75606319,3610,Tallinn,Kesklinn,,6588789.50,542905.93,Harju1,Tallinna TA
156469,"",Pahavalla (õpikasliin),58.44437405,23.02678171,156469,,Laimjala vald,,6478640.50,443170.90,,Saare MV
27946,7400006-1,Aia,58.25894159,22.47929886,27946,,Saaremaa vald,"Suund Haigla",6458586.99,410738.07,,Saare MV
3664,18809-1,Merivälja,59.4966755,24.82831072,3664,,Pirita,,6595734.00,546920.56,Harju1,Tallinna TA
21922,7800021-1,Aiandi tee,58.37628839,26.78329242,21922,,Luunja vald,"Tartu suunas",6474023.00,662798.31,,Tartu MV
3679,14809-1,Sikupilli,59.42804811,24.79190361,3679,,Lasnamäe,,6588064.10,544948.60,Harju1,Tallinna TA
138725,6701263-1,Kavaru,58.27510929,24.19515972,138725,,Pärnu linn,,6459392.50,511451.18,,Pärnu MV
136710,4420192-1,Narva Bark,59.35940659,28.17463504,136710,,Narva linn,,6587538.00,737281.25,,Narva LV
31485,6500198-1,Kooraste,57.96364412,26.645152,31485,,Kanepi vald,"Pühajõe ja Sillaotsa suunas",6427772.47,656534.51,,Põlva MV
129133,21849-1,Vaikne,59.30909559,24.40260129,129133,,Keila linn,,6574616.00,522931.65,Harju3,Harjumaa ÜTK
129132,21848-1,Vaikne,59.30911321,24.40271288,129132,,Keila linn,,6574618.00,522938.00,Harju3,Harjumaa ÜTK
24565,7800355-1,Kõlluste,58.4831206,26.65248126,24565,,Tartu vald,"Kärkna, Õvi peatuse suunas",6485602.50,654680.68,,Tartu MV
155392,8600958-1,Tammoro,57.7843383,27.02183301,155392,,Võru vald,,6408763.50,679710.93,,Võru MV
3926,04501-1,Laaniku,59.36141145,24.61385315,3926,,Nõmme,,6580534.96,534910.68,Harju1,Tallinna TA
24030,7800450-1,Lohkva,58.3731376,26.79547229,24030,,Luunja vald,"Räpina suunas",6473702.00,663524.93,,Tartu MV
27760,6500200-1,Kooraste side,57.98366988,26.62917105,27760,,Kanepi vald,"Kooraste suunas",6429964.00,655501.87,,Põlva MV
24372,8400175-1,Kangilaski,58.32802826,25.65775411,24372,,Viljandi vald,"Viljandi suunas",6466469.95,597114.93,,Viljandi MV
28464,8400562-1,Nõmme,58.31681948,25.66605245,28464,,Viljandi vald,"Viljandi suunas",6465233.97,597631.97,,Viljandi MV
4008,16206-1,Kiviku,59.44300636,24.88158406,4008,,Lasnamäe,,6589793.88,550016.70,Harju1,Tallinna TA
31193,7800532-1,Lauri-Hansu,58.24543247,26.40494685,31193,,Elva vald,"Puhja, Karijärve suunas",6458602.05,641201.06,,Tartu MV
153105,23850-1,Uusmäe,59.29190956,24.66196775,153105,,Saku vald,,6572818.80,537723.34,Harju2,Harjumaa ÜTK
4019,16110-1,Kiviku,59.44362702,24.88088816,4019,,Lasnamäe,,6589862.50,549976.31,Harju1,Tallinna TA
25976,8200020-1,Alajaama,58.06668334,26.49987881,25976,,Otepää vald,,6438911.05,647514.04,,Valga MV
4022,16206-2,Kiviku,59.44314231,24.88239576,4022,,Lasnamäe,,6589809.63,550062.55,Harju1,Tallinna TA
4026,16403-1,Rauna,59.44478823,24.88994946,4026,,Lasnamäe,,6589998.64,550488.65,Harju1,Tallinna TA
20529,7800145-1,Jalaka,58.37236916,26.80591784,20529,,Luunja vald,"Tartu suunas",6473642.00,664139.18,,Tartu MV
4031,16605-1,Priisle,59.44597413,24.8979602,4031,,Lasnamäe,,6590136.80,550941.32,Harju1,Tallinna TA
4035,16304-1,Rauna,59.44537545,24.89058245,4035,,Lasnamäe,,6590064.53,550523.69,Harju1,Tallinna TA
4051,13402-1,Järvevana,59.4227135,24.78910696,4051,,Lasnamäe,,6587467.97,544796.86,Harju1,Tallinna TA
4052,13009-1,Järvevana,59.4226332,24.78576916,4052,,Kesklinn,,6587456.80,544607.49,Harju1,Tallinna TA
4056,00122-1,Alemaa,59.43551298,24.61289161,4056,,Haabersti,,6588789.29,534780.57,Harju1,Tallinna TA
140532,22066-1,Siberi,59.259627,24.885185,140532,,Kiili vald,,6569369.58,550490.56,Harju2,Harjumaa ÜTK
149627,7000757-1,Sikeldi meierei,59.026406,24.741049,149627,,Rapla vald,,6543292.09,542556.48,Rapla1,Rapla MV
28844,8600451-1,Nöörimaa,57.84475929,27.02190473,28844,,Võru linn,"Autobaasi suunas",6415486.50,679412.12,,Võru MV
4188,23618-1,Haabneeme rand,59.51262709,24.81968045,4188,,Viimsi vald,,6597505.00,546410.00,Harju2,Harjumaa ÜTK
4189,23621-1,Meremärgi,59.51603198,24.81488697,4189,,Viimsi vald,,6597881.00,546134.00,Harju2,Harjumaa ÜTK
4193,23601-1,Randvere keskus,59.50601963,24.90559644,4193,,Viimsi vald,,6596831.50,551284.18,Harju2,Harjumaa ÜTK
4194,23602-1,Randvere keskus,59.50393397,24.90473097,4194,,Viimsi vald,,6596598.50,551238.31,Harju2,Harjumaa ÜTK
4197,23605-1,Randvere aedlinn,59.51321843,24.90502817,4197,,Viimsi vald,,6597633.00,551241.18,Harju2,Harjumaa ÜTK
4198,23606-1,Randvere aedlinn,59.51264288,24.90583311,4198,,Viimsi vald,,6597569.50,551287.62,Harju2,Harjumaa ÜTK
23547,8600454-1,Obinitsa,57.80929664,27.43997946,23547,,Setomaa vald,"Kiksova suunas",6412737.42,704415.48,,Võru MV
4200,23623-1,Lahe,59.51973257,24.80868626,4200,,Viimsi vald,,6598289.00,545778.00,Harju2,Harjumaa ÜTK
4201,23624-1,Ranna,59.5271332,24.79771209,4201,,Viimsi vald,,6599106.00,545147.00,Harju2,Harjumaa ÜTK
4202,23625-1,Ranna,59.52633482,24.79762272,4202,,Viimsi vald,,6599017.00,545143.00,Harju2,Harjumaa ÜTK
4204,23626-1,Suurevälja,59.53152507,24.79583562,4204,,Viimsi vald,,6599594.00,545035.00,Harju2,Harjumaa ÜTK
4205,23627-1,Suurevälja,59.53164377,24.79550262,4205,,Viimsi vald,,6599607.00,545016.00,Harju2,Harjumaa ÜTK
4207,23629-1,Liivaranna,59.53669196,24.79344759,4207,,Viimsi vald,,6600168.00,544893.06,Harju2,Harjumaa ÜTK
4208,23630-1,Suureniidu,59.54259091,24.79620026,4208,,Viimsi vald,,6600827.00,545041.00,Harju2,Harjumaa ÜTK
4209,23631-1,Suureniidu,59.54344153,24.79655604,4209,,Viimsi vald,,6600922.00,545060.00,Harju2,Harjumaa ÜTK
4210,23632-1,Rohuneeme kauplus,59.55089135,24.79517427,4210,,Viimsi vald,,6601751.00,544972.00,Harju2,Harjumaa ÜTK
4211,23633-1,Rohuneeme kauplus,59.55050696,24.7949089,4211,,Viimsi vald,,6601708.00,544957.50,Harju2,Harjumaa ÜTK
4212,23634-1,Püünsi,59.5550919,24.7937515,4212,,Viimsi vald,,6602218.00,544886.00,Harju2,Harjumaa ÜTK
4213,23635-1,Püünsi,59.5558097,24.79380361,4213,,Viimsi vald,,6602298.00,544888.00,Harju2,Harjumaa ÜTK
4214,23636-1,Rohuneeme sadam,59.5585502,24.79782925,4214,,Viimsi vald,,6602606.00,545112.00,Harju2,Harjumaa ÜTK
4215,23637-1,Rohuneeme sadam,59.55836837,24.79746795,4215,,Viimsi vald,,6602585.50,545091.81,Harju2,Harjumaa ÜTK
4216,23638-1,Rohuneeme,59.56087267,24.80267702,4216,,Viimsi vald,,6602868.00,545383.00,Harju2,Harjumaa ÜTK
24477,4400692-1,Sinimäe,59.37786926,27.87786054,24477,,Narva-Jõesuu linn,"Narva suunas",6588578.80,720313.62,,Ida-Viru MV
4220,23613-1,Farmi,59.52180695,24.85139119,4220,,Viimsi vald,,6598550.00,548192.37,Harju2,Harjumaa ÜTK
4221,23614-1,Farmi,59.52124598,24.8499881,4221,,Viimsi vald,,6598486.50,548113.75,Harju2,Harjumaa ÜTK
4223,23611-1,Metskitse,59.52852272,24.8581337,4223,,Viimsi vald,,6599303.00,548564.43,Harju2,Harjumaa ÜTK
4224,23612-1,Metskitse,59.52784559,24.85734908,4224,,Viimsi vald,,6599227.00,548521.00,Harju2,Harjumaa ÜTK
4228,23608-1,Tädu kuusk,59.52103364,24.89567774,4228,,Viimsi vald,,6598496.50,550700.18,Harju2,Harjumaa ÜTK
4229,23645-1,Leppneeme sadam,59.55044368,24.86637024,4229,,Viimsi vald,,6601751.00,548999.00,Harju2,Harjumaa ÜTK
151618,4400984-1,Pärna,59.40336679,27.28234712,151618,,Järve linnaosa,,6589610.00,686371.12,,Kohtla-Järve LV
24476,4400691-1,Sinimäe,59.37817575,27.87700596,24476,,Narva-Jõesuu linn,"Tallinna suunas",6588610.08,720263.15,,Ida-Viru MV
27120,5700452-1,Vaikna,58.91779,24.11236,27120,,Lääne-Nigula vald,,6530963.84,506472.93,,Lääne MV
24768,8400729-1,Raassilla,58.25072341,25.74697,24768,,Viljandi vald,"Mustla suunas",6457995.48,602564.46,,Viljandi MV
155293,09710-1,Mähe aedlinn,59.49111743,24.88085208,155293,,Pirita,,6595152.76,549904.79,Harju1,Tallinna TA
24063,4400523-1,Olgina tee,59.389093,28.13325,24063,Olgina,Narva-Jõesuu linn,"Narva suunas",6590693.19,734728.31,,Ida-Viru MV
31473,6500202-1,Koorvere,58.12466408,26.95605495,31473,,Põlva vald,"Põlva suunas",6446457.21,674131.72,,Põlva MV
1605,20802-1,Mõisapargi,59.50619048,24.82978906,1605,,Viimsi vald,,6596795.00,546991.18,Harju2,Harjumaa ÜTK
5062,22009-1,Kurna tee,59.33214969,24.8232007,5062,,Kiili vald,,6577402.93,546856.04,Harju2,Harjumaa ÜTK
4324,21217-1,Estonia 1,59.43366347,24.7518844,4324,Tallinn; Estonia,Kesklinn,,6588663.50,542670.18,Harju1,Tallinna TA
4325,21217-3,Estonia 3,59.43349131,24.75216476,4325,Tallinn; Estonia,Kesklinn,,6588644.50,542686.31,Harju1,Tallinna TA
4326,21217-4,Estonia 4,59.43341895,24.75226008,4326,Tallinn; Estonia,Kesklinn,,6588636.50,542691.81,Harju1,Tallinna TA
4327,21217-5,Estonia 5,59.43334651,24.75236972,4327,Tallinn; Estonia,Kesklinn,,6588628.50,542698.12,Harju1,Tallinna TA
4328,21217-6,Estonia 6,59.43326957,24.75248037,4328,Tallinn; Estonia,Kesklinn,,6588620.00,542704.50,Harju1,Tallinna TA
4334,21219-1,Estonia,59.43342371,24.75064012,4334,Tallinn; Estonia,Kesklinn,,6588636.00,542599.87,Harju1,Tallinna TA
25850,5700423-1,Turpla,58.83662,24.05599,25850,,Lääne-Nigula vald,,6521918.55,503233.06,,Lääne MV
4354,23650-1,Viimsi kool,59.5080642,24.83159738,4354,,Viimsi vald,,6597005.00,547091.00,Harju2,Harjumaa ÜTK
152853,7401006-1,Ariste,58.53420942,23.03838226,152853,,Orissaare vald,,6488635.50,443991.68,,Saare MV
14454,23380-1,Koidu,59.34405731,24.59183051,14454,,Saue vald,,6578590.50,533675.31,Harju2,Harjumaa ÜTK
4429,23118-1,Järveveere,59.40039298,24.79053536,4429,,Rae vald,,6584982.50,544907.25,Harju2,Harjumaa ÜTK
4432,23188-1,Veski,59.38981308,24.80394342,4432,,Rae vald,,6583813.00,545683.00,Harju2,Harjumaa ÜTK
4433,23187-1,Veski,59.39020302,24.80330141,4433,,Rae vald,,6583856.00,545646.00,Harju2,Harjumaa ÜTK
4434,23113-1,Järveküla,59.38605987,24.81573337,4434,,Rae vald,,6583403.00,546358.00,Harju2,Harjumaa ÜTK
4435,23114-1,Järveküla,59.38574354,24.81607777,4435,,Rae vald,,6583368.00,546378.00,Harju2,Harjumaa ÜTK
4438,23103-1,Annuse,59.38973566,24.82901573,4438,,Rae vald,,6583821.71,547107.73,Harju2,Harjumaa ÜTK
4439,23104-1,Annuse,59.3894625,24.82877969,4439,,Rae vald,,6583791.12,547094.69,Harju2,Harjumaa ÜTK
4443,23108-1,Assaku,59.38325,24.836417,4443,,Rae vald,,6583104.47,547537.29,Harju2,Harjumaa ÜTK
814,00307-1,Haabersti ring,59.42405,24.64389,814,,Haabersti,,6587528.79,536551.88,Harju1,Tallinna TA
4446,23126-1,Kungla,59.36717791,24.86123994,4446,,Rae vald,,6581332.00,548971.00,Harju2,Harjumaa ÜTK
4447,23125-1,Kungla,59.365722,24.862927,4447,,Rae vald,,6581171.05,549069.00,Harju2,Harjumaa ÜTK
4449,23162-1,Pildiküla,59.35665205,24.87685207,4449,,Rae vald,,6580171.00,549874.00,Harju2,Harjumaa ÜTK
4450,23181-1,Vana-Aaviku,59.34070884,24.9019618,4450,,Rae vald,,6578414.00,551326.00,Harju2,Harjumaa ÜTK
4451,23182-1,Vana-Aaviku,59.34051282,24.90174575,4451,,Rae vald,,6578392.00,551314.00,Harju2,Harjumaa ÜTK
4452,23123-1,Kautjala,59.32444018,24.92157649,4452,,Rae vald,,6576617.00,552467.00,Harju2,Harjumaa ÜTK
4453,23124-1,Kautjala,59.32405545,24.92139048,4453,,Rae vald,,6576574.00,552457.00,Harju2,Harjumaa ÜTK
4464,23189-1,Vaidasoo,59.27459892,25.00671383,4464,,Rae vald,,6571135.00,557397.00,Harju3,Harjumaa ÜTK
4466,23109-1,Ellaku,59.26696293,25.01780126,4466,,Rae vald,,6570294.00,558042.00,Harju3,Harjumaa ÜTK
4467,23110-1,Ellaku,59.26556907,25.01925053,4467,,Rae vald,,6570140.00,558127.00,Harju3,Harjumaa ÜTK
4468,23905-1,Kasemetsa,59.26052534,25.02017039,4468,,Rae vald,,6569579.00,558188.00,Harju3,Harjumaa ÜTK
4469,23906-1,Kasemetsa,59.25969974,25.01897114,4469,,Rae vald,,6569486.00,558121.00,Harju3,Harjumaa ÜTK
4470,23173-1,Tuhala tee,59.236419,25.02141174,4470,,Rae vald,,6566895.00,558299.68,Harju3,Harjumaa ÜTK
131476,23185-1,Veetorni,59.35512154,24.89480655,131476,Jüri,Rae vald,,6580014.00,550897.43,Harju2,Harjumaa ÜTK
4478,23170-1,Salu küla,59.26914035,25.07891622,4478,,Rae vald,,6570591.00,561523.00,Harju3,Harjumaa ÜTK
4479,23177-1,Urvaste,59.27384513,25.09618385,4479,,Rae vald,,6571131.00,562499.00,Harju3,Harjumaa ÜTK
4480,23178-1,Urvaste,59.27372375,25.09674128,4480,,Rae vald,,6571118.00,562531.00,Harju3,Harjumaa ÜTK
4482,23128-1,Väljamäe tee,59.3338023,24.83229,4482,,Rae vald,,6577593.41,547371.09,Harju2,Harjumaa ÜTK
4487,23175-1,Tuule,59.35809573,24.90750129,4487,Jüri,Rae vald,,6580355.00,551615.00,Harju2,Harjumaa ÜTK
4488,23176-1,Tuule,59.35824963,24.90861311,4488,Jüri,Rae vald,,6580373.00,551678.00,Harju2,Harjumaa ÜTK
4688,21568-1,Vääna kool,59.3887616,24.4120092,4688,,Harku vald,,6583494.00,523413.00,Harju2,Harjumaa ÜTK
4493,23167-1,Rae,59.36172,24.936879,4493,,Rae vald,,6580781.68,553280.13,Harju2,Harjumaa ÜTK
4494,23168-1,Rae,59.36168332,24.93738551,4494,,Rae vald,,6580778.00,553309.00,Harju2,Harjumaa ÜTK
4495,23183-1,Vaskjala,59.36125903,24.95021091,4495,,Rae vald,,6580741.00,554039.00,Harju2,Harjumaa ÜTK
4497,23153-1,Pajupea,59.36116436,24.96443451,4497,,Rae vald,,6580742.00,554848.00,Harju2,Harjumaa ÜTK
4499,23145-1,Leivajõe,59.36034052,24.99544816,4499,,Rae vald,,6580676.00,556613.00,Harju2,Harjumaa ÜTK
4501,23165-1,Pruuli tee,59.3722765,24.92408909,4501,,Rae vald,,6581947.50,552536.62,Harju2,Harjumaa ÜTK
4502,23166-1,Pruuli tee,59.37257405,24.92454349,4502,,Rae vald,,6581981.00,552562.00,Harju2,Harjumaa ÜTK
4503,23142-1,Laiakivi,59.38200592,24.92819205,4503,,Rae vald,,6583034.50,552754.87,Harju2,Harjumaa ÜTK
4504,23141-1,Laiakivi,59.3824248,24.92862461,4504,,Rae vald,,6583081.50,552778.81,Harju2,Harjumaa ÜTK
155390,8600956-1,Teeääre,57.78223944,27.03171958,155390,,Võru vald,,6408556.50,680309.06,,Võru MV
4506,43156-1,Külma,59.38435677,24.93280128,4506,,Rae vald,,6583300.00,553013.18,Harju2,Harjumaa ÜTK
4508,43152-1,Lagedi haigla,59.39316749,24.93413281,4508,,Rae vald,,6584282.50,553075.18,Harju2,Harjumaa ÜTK
24633,7801048-1,Vana-Kastre,58.35513508,26.90873193,24633,,Kastre vald,"Tartu suunas",6471980.50,670233.06,,Tartu MV
130654,43171-1,Leivajõe aiandusühistu,59.38713101,24.94158144,130654,,Rae vald,,6583616.00,553507.81,Harju2,Harjumaa ÜTK
5059,22011-1,Lauri,59.34315672,24.80811061,5059,,Kiili vald,,6578618.60,545982.40,Harju2,Harjumaa ÜTK
24636,7800545-1,Miku,58.3410411,26.95669781,24636,,Kastre vald,"Tartu suunas",6470535.00,673107.62,,Tartu MV
4529,43111-1,Lagedi,59.40383997,24.9387523,4529,,Rae vald,,6585475.00,553321.00,Harju2,Harjumaa ÜTK
150352,47228-1,Kumnamõisa,59.32302693,24.45241217,150352,,Harku vald,,6576186.00,525758.31,Harju3,Harjumaa ÜTK
4532,43115-1,Lohu,59.40750588,24.945826,4532,,Rae vald,,6585889.00,553717.00,Harju2,Harjumaa ÜTK
4534,43113-1,Lagedi kool,59.40211832,24.94349386,4534,Lagedi,Rae vald,,6585287.00,553593.00,Harju2,Harjumaa ÜTK
4536,43301-1,Ülejõe,59.41290622,24.92107277,4536,,Rae vald,,6586471.00,552303.00,Harju2,Harjumaa ÜTK
4537,43302-1,Ülejõe,59.41273285,24.92147316,4537,,Rae vald,,6586452.00,552326.00,Harju2,Harjumaa ÜTK
4538,43401-1,Metsaveere,59.42085464,24.9205537,4538,,Rae vald,,6587356.00,552261.37,Harju2,Harjumaa ÜTK
4625,21504-1,Kallaste,59.42964303,24.5512153,4625,,Harku vald,,6588105.00,531286.00,Harju2,Harjumaa ÜTK
4626,21503-1,Kallaste,59.42946779,24.55019057,4626,,Harku vald,,6588085.00,531228.00,Harju2,Harjumaa ÜTK
4627,21549-1,Tabasalu,59.43027666,24.53910344,4627,Tabasalu,Harku vald,,6588170.00,530598.00,Harju2,Harjumaa ÜTK
4628,21548-1,Tabasalu,59.43075801,24.53773671,4628,Tabasalu,Harku vald,,6588223.00,530520.00,Harju2,Harjumaa ÜTK
4629,21520-1,Mere tee,59.43338686,24.52470339,4629,,Harku vald,,6588510.00,529778.00,Harju2,Harjumaa ÜTK
4630,21521-1,Mere tee,59.43318588,24.52558134,4630,,Harku vald,,6588488.00,529828.00,Harju2,Harjumaa ÜTK
4631,21534-1,Rannamõisa,59.43687435,24.51443668,4631,,Harku vald,,6588894.00,529192.37,Harju2,Harjumaa ÜTK
4632,21535-1,Rannamõisa,59.43721226,24.51295484,4632,,Harku vald,,6588931.00,529108.00,Harju2,Harjumaa ÜTK
4633,21546-1,Sõrve tee,59.43809583,24.50264088,4633,,Harku vald,,6589025.00,528522.00,Harju2,Harjumaa ÜTK
4637,21501-1,Ilmandu,59.44883003,24.46394508,4637,,Harku vald,,6590205.00,526318.00,Harju2,Harjumaa ÜTK
4638,21502-1,Ilmandu,59.44953524,24.46250908,4638,,Harku vald,,6590283.00,526236.00,Harju2,Harjumaa ÜTK
24060,4400377-1,Lennujaama,59.390067,28.105086,24060,,Narva-Jõesuu linn,"Tallinna suunas",6590703.27,733124.23,,Ida-Viru MV
4641,21525-1,Muraste,59.45579766,24.42616562,4641,,Harku vald,,6590967.00,524170.00,Harju2,Harjumaa ÜTK
156470,"",Ruhve (õpilasliin),58.37863398,23.03475761,156470,,Laimjala vald,,6471312.50,443531.25,,Saare MV
155389,8600955-1,Teeääre,57.78184057,27.03148916,155389,,Võru vald,,6408511.50,680297.37,,Võru MV
4650,21555-1,Tuletorni,59.46327714,24.38460257,4650,,Harku vald,,6591786.00,521808.00,Harju2,Harjumaa ÜTK
4657,21572-1,Viti,59.4450919,24.37812273,4657,,Harku vald,"",6589758.00,521452.00,Harju2,Harjumaa ÜTK
4658,21573-1,Viti,59.44517112,24.37867004,4658,,Harku vald,"",6589767.00,521483.00,Harju2,Harjumaa ÜTK
4659,21570-1,Vääna-Jõesuu,59.43356617,24.36704504,4659,,Harku vald,,6588470.50,520830.56,Harju3,Harjumaa ÜTK
4660,21571-1,Vääna-Jõesuu,59.43330135,24.3670499,4660,,Harku vald,,6588441.00,520831.00,Harju3,Harjumaa ÜTK
4661,21540-1,Viljapuu tee,59.43416814,24.40219552,4661,,Harku vald,"",6588549.00,522825.00,Harju2,Harjumaa ÜTK
4662,21541-1,Viljapuu tee,59.4341325,24.402107,4662,,Harku vald,"",6588545.00,522820.00,Harju2,Harjumaa ÜTK
4665,21526-1,Naage,59.41670345,24.34397613,4665,,Harku vald,,6586585.00,519531.00,Harju3,Harjumaa ÜTK
4666,21527-1,Naage,59.4170799,24.34419127,4666,,Harku vald,,6586627.00,519543.00,Harju3,Harjumaa ÜTK
4672,21709-1,Keila-Joa,59.39565167,24.30083539,4672,Keila-Joa,Lääne-Harju vald,,6584228.00,517092.00,Harju3,Harjumaa ÜTK
4673,21708-1,Keila-Joa,59.39492748,24.29956177,4673,Keila-Joa,Lääne-Harju vald,,6584147.00,517020.00,Harju3,Harjumaa ÜTK
23163,8600465-1,Palli,57.64205035,26.99304713,23163,,Rõuge vald,"Siksali suunas",6392854.43,678707.08,,Võru MV
26983,5700384-1,Soo-Otsa,58.80048,24.04732,26983,,Lääne-Nigula vald,,6517892.71,502735.27,,Lääne MV
152852,7401008-1,Liivaküla,58.5331361,23.02171988,152852,,Orissaare vald,,6488530.00,443019.53,,Saare MV
152851,7401007-1,Liivaküla,58.53328508,23.02065118,152851,,Orissaare vald,,6488547.50,442957.53,,Saare MV
4678,21558-1,Tuuleveski,59.43331611,24.49427118,4678,,Harku vald,,6588489.00,528051.00,Harju2,Harjumaa ÜTK
4679,21559-1,Tuuleveski,59.43369079,24.49489334,4679,,Harku vald,,6588531.00,528086.00,Harju2,Harjumaa ÜTK
4682,21544-1,Sõrve,59.42991843,24.45050937,4682,,Harku vald,,6588093.00,525570.00,Harju2,Harjumaa ÜTK
4683,21545-1,Sõrve,59.42985903,24.44950431,4683,,Harku vald,,6588086.00,525513.00,Harju2,Harjumaa ÜTK
4685,21517-1,Liikva,59.42397835,24.42273896,4685,,Harku vald,,6587421.00,523998.00,Harju2,Harjumaa ÜTK
4686,21563-1,Vaila tee,59.41552705,24.41567793,4686,,Harku vald,"",6586477.00,523603.00,Harju2,Harjumaa ÜTK
24061,4400378-1,Lennujaama,59.389902,28.105649,24061,,Narva-Jõesuu linn,"Narva suunas",6590686.88,733157.29,,Ida-Viru MV
4692,21522-1,Metsatuka,59.4042075,24.41001218,4692,,Harku vald,,6585214.00,523289.00,Harju2,Harjumaa ÜTK
4693,21523-1,Metsatuka,59.40464733,24.41001746,4693,,Harku vald,,6585263.00,523289.00,Harju2,Harjumaa ÜTK
4697,21560-1,Vahi,59.3750243,24.46917182,4697,,Harku vald,"",6581985.00,526672.00,Harju2,Harjumaa ÜTK
4699,23367-1,Laabi,59.4028536,24.54768502,4699,,Saue vald,,6585119.00,531110.00,Harju2,Harjumaa ÜTK
4700,23366-1,Laabi,59.40314032,24.54781285,4700,,Saue vald,,6585151.00,531117.00,Harju2,Harjumaa ÜTK
4701,21514-1,Kütke,59.34643515,24.43204755,4701,,Harku vald,,6578786.00,524582.06,Harju3,Harjumaa ÜTK
4702,21515-1,Kütke,59.34668667,24.43199689,4702,,Harku vald,,6578814.00,524579.00,Harju3,Harjumaa ÜTK
4703,21556-1,Tutermaa,59.32793114,24.46823298,4703,,Harku vald,,6576738.50,526655.25,Harju3,Harjumaa ÜTK
4704,21557-1,Tutermaa,59.32876033,24.46981436,4704,,Harku vald,,6576831.50,526744.62,Harju3,Harjumaa ÜTK
4705,21512-1,Künka,59.31881453,24.45306785,4705,,Harku vald,,6575717.00,525798.81,Harju3,Harjumaa ÜTK
4707,23319-1,Pihuoja,59.34488292,24.48090354,4707,,Saue vald,,6578632.00,527363.00,Harju2,Harjumaa ÜTK
4709,23320-1,Pihuoja,59.34353256,24.48072642,4709,,Saue vald,,6578481.50,527354.00,Harju2,Harjumaa ÜTK
4712,23315-1,Kindluse,59.36191449,24.48989957,4712,,Saue vald,,6580533.00,527861.00,Harju2,Harjumaa ÜTK
4713,23316-1,Kindluse,59.36187754,24.49018038,4713,,Saue vald,,6580529.00,527877.00,Harju2,Harjumaa ÜTK
4714,23336-1,Vääna-Posti,59.3616889,24.49738049,4714,,Saue vald,,6580511.00,528286.62,Harju2,Harjumaa ÜTK
4715,23335-1,Vääna-Posti,59.36276492,24.50005797,4715,,Saue vald,,6580632.00,528438.00,Harju2,Harjumaa ÜTK
4716,23324-1,Pühaküla,59.36719102,24.51616394,4716,,Saue vald,,6581132.00,529350.12,Harju2,Harjumaa ÜTK
4717,23323-1,Pühaküla,59.36747997,24.51801273,4717,,Saue vald,,6581165.00,529455.00,Harju2,Harjumaa ÜTK
4718,23309-1,Hüüru,59.37845935,24.53791999,4718,,Saue vald,,6582397.00,530577.12,Harju2,Harjumaa ÜTK
4719,23310-1,Hüüru,59.37871716,24.53853429,4719,,Saue vald,,6582426.00,530611.81,Harju2,Harjumaa ÜTK
4720,23305-1,Harku,59.38908889,24.55599537,4720,,Saue vald,,6583589.50,531594.75,Harju2,Harjumaa ÜTK
4722,23301-1,Bioloogia,59.39166416,24.58013529,4722,,Saue vald,,6583888.00,532964.00,Harju2,Harjumaa ÜTK
4723,23302-1,Bioloogia,59.39200139,24.58304496,4723,,Saue vald,,6583927.00,533129.00,Harju2,Harjumaa ÜTK
32418,5900451-1,Mullikmäe,59.32889761,26.41442938,32418,,Vinni vald,,6579226.50,637414.56,Viru1,Lääne-Viru MV
26651,7800799-1,Rõngu kool,58.14936187,26.24601519,26651,,Elva vald,,6447584.45,632231.57,,Tartu MV
154591,4401144-1,Imesaare,59.34588967,27.72831736,154591,,Narva-Jõesuu linn,"Sillamäe suunas",6584540.00,712024.43,,Ida-Viru MV
4732,21742-1,Pansionaat,59.39080543,24.21299373,4732,,Lääne-Harju vald,,6583669.00,512103.00,Harju3,Harjumaa ÜTK
